$GPGGA,203651.046,4907.9774,N,12234.8947,W,1,5,1.53,41.5,M,-16.6,M,,*52
$GPGSA,A,3,21,32,10,20,08,,,,,,,,1.81,1.53,0.97*0A
$GPRMC,203651.046,A,4907.9774,N,12234.8947,W,3.08,171.16,180920,,,A*77
$GPVTG,171.16,T,,M,3.08,N,5.71,K,A*35
$GPGGA,203653.000,4908.0206,N,12234.8866,W,1,4,11.51,65.2,M,-16.6,M,,*65
$GPGSA,A,3,21,10,20,08,,,,,,,,,11.55,11.51,0.99*0E
$GPRMC,203653.000,A,4908.0206,N,12234.8866,W,38.78,180.13,180920,,,A*47
$GPVTG,180.13,T,,M,38.78,N,71.86,K,A*3A
$GPGGA,203654.000,4908.0100,N,12234.8874,W,1,3,41.34,65.6,M,-16.6,M,,*61
$GPGSA,A,2,21,10,08,,,,,,,,,,41.35,41.34,1.00*09
$GPRMC,203654.000,A,4908.0100,N,12234.8874,W,38.84,180.79,180920,,,A*49
$GPVTG,180.79,T,,M,38.84,N,71.98,K,A*3A
$GPGGA,203655.000,4907.9635,N,12234.9239,W,1,4,11.47,75.3,M,-16.6,M,,*67
$GPGSA,A,3,21,32,10,08,,,,,,,,,20.58,11.47,17.08*3B
$GPRMC,203655.000,A,4907.9635,N,12234.9239,W,14.27,61.86,180920,,,A*74
$GPVTG,61.86,T,,M,14.27,N,26.44,K,A*00
$GPGGA,203656.000,4907.9679,N,12234.9104,W,1,4,2.58,64.1,M,-16.6,M,,*5F
$GPGSA,A,3,21,32,10,08,,,,,,,,,2.77,2.58,1.00*05
$GPGSV,3,1,11,10,83,003,18,21,57,298,24,20,51,075,,27,48,242,*76
$GPGSV,3,2,11,08,40,292,28,32,39,189,13,44,33,172,,18,23,123,*72
$GPGSV,3,3,11,24,22,076,,11,19,310,,15,09,045,*48
$GPRMC,203656.000,A,4907.9679,N,12234.9104,W,3.35,107.70,180920,,,A*7F
$GPVTG,107.70,T,,M,3.35,N,6.20,K,A*3D
$GPGGA,203657.000,4907.9523,N,12234.9455,W,1,4,11.45,123.7,M,-16.6,M,,*59
$GPGSA,A,3,21,32,10,08,,,,,,,,,20.56,11.45,17.07*38
$GPRMC,203657.000,A,4907.9523,N,12234.9455,W,9.30,203.69,180920,,,A*73
$GPVTG,203.69,T,,M,9.30,N,17.23,K,A*0E
$GPGGA,203658.000,4907.9512,N,12234.9553,W,1,5,2.51,130.5,M,-16.6,M,,*65
$GPGSA,A,3,21,32,10,08,11,,,,,,,,2.68,2.51,0.95*0F
$GPRMC,203658.000,A,4907.9512,N,12234.9553,W,5.02,142.71,180920,,,A*7B
$GPVTG,142.71,T,,M,5.02,N,9.30,K,A*31
$GPGGA,203659.000,4907.9616,N,12234.9260,W,1,5,3.29,65.1,M,-16.6,M,,*5F
$GPGSA,A,3,21,32,10,08,11,,,,,,,,4.43,3.29,2.97*0E
$GPRMC,203659.000,A,4907.9616,N,12234.9260,W,4.96,148.74,180920,,,A*79
$GPVTG,148.74,T,,M,4.96,N,9.18,K,A*38
$GPGGA,203700.000,4907.9609,N,12234.9222,W,1,5,3.29,76.0,M,-16.6,M,,*59
$GPGSA,A,3,21,32,10,08,11,,,,,,,,4.43,3.29,2.97*0E
$GPRMC,203700.000,A,4907.9609,N,12234.9222,W,4.82,170.90,180920,,,A*78
$GPVTG,170.90,T,,M,4.82,N,8.93,K,A*3E
$GPGGA,203701.000,4907.9581,N,12234.9255,W,1,5,2.50,91.3,M,-16.6,M,,*5E
$GPGSA,A,3,21,32,10,08,11,,,,,,,,2.68,2.50,0.95*0E
$GPGSV,3,1,11,10,83,003,21,21,57,298,26,20,51,075,,27,48,242,*7E
$GPGSV,3,2,11,08,40,292,30,32,39,189,14,46,33,188,,18,23,123,*7B
$GPGSV,3,3,11,24,22,076,,11,19,310,21,15,09,045,*4B
$GPRMC,203701.000,A,4907.9581,N,12234.9255,W,3.28,153.99,180920,,,A*75
$GPVTG,153.99,T,,M,3.28,N,6.08,K,A*3D
$GPGGA,203702.000,,,,,0,7,,,M,,M,,*4B
$GPGSA,A,1,,,,,,,,,,,,,,,*1E
$GPRMC,203702.000,V,,,,,2.94,158.46,180920,,,N*4A
$GPVTG,158.46,T,,M,2.94,N,5.44,K,N*36
$GPGGA,203703.000,4907.9578,N,12234.9196,W,1,7,1.27,72.2,M,-16.6,M,,*5B
$GPGSA,A,3,21,32,10,20,08,11,27,,,,,,1.57,1.27,0.91*01
$GPRMC,203703.000,A,4907.9578,N,12234.9196,W,3.17,150.13,180920,,,A*70
$GPVTG,150.13,T,,M,3.17,N,5.87,K,A*34
$GPGGA,203704.000,4907.9600,N,12234.9173,W,1,7,1.27,67.2,M,-16.6,M,,*5F
$GPGSA,A,3,21,32,10,20,08,11,27,,,,,,1.57,1.27,0.91*01
$GPRMC,203704.000,A,4907.9600,N,12234.9173,W,2.92,172.40,180920,,,A*7A
$GPVTG,172.40,T,,M,2.92,N,5.40,K,A*35
$GPGGA,203705.000,4907.9588,N,12234.9178,W,1,7,1.27,64.9,M,-16.6,M,,*5E
$GPGSA,A,3,21,32,10,20,08,11,27,,,,,,1.57,1.27,0.91*01
$GPRMC,203705.000,A,4907.9588,N,12234.9178,W,2.73,183.76,180920,,,A*77
$GPVTG,183.76,T,,M,2.73,N,5.05,K,A*30
$GPGGA,203706.000,4907.9678,N,12234.9054,W,1,8,1.07,66.9,M,-16.6,M,,*51
$GPGSA,A,3,21,15,32,10,20,08,11,27,,,,,1.36,1.07,0.84*04
$GPGSV,3,1,11,10,83,003,24,21,57,298,28,20,51,075,17,27,48,242,20*71
$GPGSV,3,2,11,08,40,292,32,32,39,189,14,46,33,188,,18,23,123,*79
$GPGSV,3,3,11,24,22,076,,11,19,310,21,15,09,045,21*48
$GPRMC,203706.000,A,4907.9678,N,12234.9054,W,3.78,213.71,180920,,,A*70
$GPVTG,213.71,T,,M,3.78,N,7.01,K,A*31
$GPGGA,203707.000,4907.9670,N,12234.9071,W,1,8,1.07,55.1,M,-16.6,M,,*57
$GPGSA,A,3,21,15,32,10,20,08,11,27,,,,,1.36,1.07,0.84*04
$GPRMC,203707.000,A,4907.9670,N,12234.9071,W,2.68,183.27,180920,,,A*77
$GPVTG,183.27,T,,M,2.68,N,4.96,K,A*35
$GPGGA,203708.000,4907.9658,N,12234.9099,W,1,7,1.27,55.9,M,-16.6,M,,*51
$GPGSA,A,3,21,32,10,20,08,11,27,,,,,,1.57,1.27,0.91*01
$GPRMC,203708.000,A,4907.9658,N,12234.9099,W,1.49,218.06,180920,,,A*76
$GPVTG,218.06,T,,M,1.49,N,2.76,K,A*3F
$GPGGA,203709.000,4907.9651,N,12234.9132,W,1,7,1.27,61.1,M,-16.6,M,,*56
$GPGSA,A,3,21,32,10,20,08,11,27,,,,,,1.57,1.27,0.91*01
$GPRMC,203709.000,A,4907.9651,N,12234.9132,W,2.37,227.23,180920,,,A*7F
$GPVTG,227.23,T,,M,2.37,N,4.40,K,A*3D
$GPGGA,203710.000,4907.9621,N,12234.9121,W,1,7,1.27,54.1,M,-16.6,M,,*5D
$GPGSA,A,3,21,32,10,20,08,11,27,,,,,,1.57,1.27,0.91*01
$GPRMC,203710.000,A,4907.9621,N,12234.9121,W,1.68,196.67,180920,,,A*72
$GPVTG,196.67,T,,M,1.68,N,3.11,K,A*3E
$GPGGA,203711.000,4907.9617,N,12234.9114,W,1,7,1.27,50.2,M,-16.6,M,,*58
$GPGSA,A,3,21,32,10,20,08,11,27,,,,,,1.57,1.27,0.91*01
$GPGSV,3,1,11,10,83,003,24,21,57,298,29,20,51,075,16,27,48,242,20*71
$GPGSV,3,2,11,08,40,292,33,32,39,189,13,48,32,193,,18,23,123,*7A
$GPGSV,3,3,11,24,22,076,,11,19,310,20,15,09,045,*4A
$GPRMC,203711.000,A,4907.9617,N,12234.9114,W,1.31,217.24,180920,,,A*71
$GPVTG,217.24,T,,M,1.31,N,2.43,K,A*39
$GPGGA,203712.000,4907.9598,N,12234.9097,W,1,7,1.27,56.1,M,-16.6,M,,*50
$GPGSA,A,3,21,32,10,20,08,11,27,,,,,,1.57,1.27,0.91*01
$GPRMC,203712.000,A,4907.9598,N,12234.9097,W,1.56,209.40,180920,,,A*70
$GPVTG,209.40,T,,M,1.56,N,2.89,K,A*33
$GPGGA,203713.000,4907.9650,N,12234.9127,W,1,7,1.27,60.0,M,-16.6,M,,*58
$GPGSA,A,3,21,32,10,20,08,11,27,,,,,,1.57,1.27,0.91*01
$GPRMC,203713.000,A,4907.9650,N,12234.9127,W,1.32,259.52,180920,,,A*78
$GPVTG,259.52,T,,M,1.32,N,2.45,K,A*37
$GPGGA,203714.000,4907.9648,N,12234.9126,W,1,6,1.36,60.0,M,-16.6,M,,*56
$GPGSA,A,3,21,32,20,08,11,27,,,,,,,3.10,1.36,2.78*04
$GPRMC,203714.000,A,4907.9648,N,12234.9126,W,4.59,247.73,180920,,,A*73
$GPVTG,247.73,T,,M,4.59,N,8.50,K,A*3D
$GPGGA,203715.000,4907.9710,N,12234.8808,W,1,6,1.30,42.9,M,-16.6,M,,*50
$GPGSA,A,3,21,32,20,08,11,27,,,,,,,1.60,1.30,0.94*07
$GPRMC,203715.000,A,4907.9710,N,12234.8808,W,3.53,228.90,180920,,,A*73
$GPVTG,228.90,T,,M,3.53,N,6.54,K,A*3E
$GPGGA,203716.000,4907.9732,N,12234.8755,W,1,5,4.02,40.2,M,-16.6,M,,*5A
$GPGSA,A,3,21,32,08,11,27,,,,,,,,4.13,4.02,0.94*00
$GPGSV,3,1,11,10,83,003,,21,57,298,28,20,51,075,,27,48,242,20*71
$GPGSV,3,2,11,08,40,292,32,32,39,189,12,48,32,193,,18,23,123,*7A
$GPGSV,3,3,11,24,22,076,,11,19,310,20,15,09,045,*4A
$GPRMC,203716.000,A,4907.9732,N,12234.8755,W,1.45,169.76,180920,,,A*7C
$GPVTG,169.76,T,,M,1.45,N,2.69,K,A*3F
$GPGGA,203717.000,4907.9726,N,12234.8694,W,1,5,4.02,34.9,M,-16.6,M,,*5A
$GPGSA,A,3,21,32,08,11,27,,,,,,,,4.13,4.02,0.94*00
$GPRMC,203717.000,A,4907.9726,N,12234.8694,W,1.69,148.07,180920,,,A*7F
$GPVTG,148.07,T,,M,1.69,N,3.13,K,A*38
$GPGGA,203718.000,4907.9741,N,12234.8431,W,1,6,1.20,33.3,M,-16.6,M,,*52
$GPGSA,A,3,21,15,32,08,11,27,,,,,,,1.52,1.20,0.94*01
$GPRMC,203718.000,A,4907.9741,N,12234.8431,W,1.49,110.67,180920,,,A*75
$GPVTG,110.67,T,,M,1.49,N,2.76,K,A*33
$GPGGA,203719.000,4907.9726,N,12234.8587,W,1,6,1.20,39.1,M,-16.6,M,,*56
$GPGSA,A,3,21,15,32,08,11,27,,,,,,,1.52,1.20,0.94*01
$GPRMC,203719.000,A,4907.9726,N,12234.8587,W,2.40,190.56,180920,,,A*79
$GPVTG,190.56,T,,M,2.40,N,4.45,K,A*35
$GPGGA,203720.000,4907.9733,N,12234.8716,W,1,7,1.16,30.3,M,-16.6,M,,*5D
$GPGSA,A,3,21,15,32,10,08,11,27,,,,,,1.45,1.16,0.86*00
$GPRMC,203720.000,A,4907.9733,N,12234.8716,W,2.02,196.62,180920,,,A*7A
$GPVTG,196.62,T,,M,2.02,N,3.75,K,A*36
$GPGGA,203721.000,4907.9757,N,12234.8859,W,1,7,1.16,-11.1,M,-16.6,M,,*76
$GPGSA,A,3,21,15,32,10,08,11,27,,,,,,1.45,1.16,0.86*00
$GPGSV,3,1,11,10,83,005,21,21,57,298,27,20,51,075,,27,48,242,20*7B
$GPGSV,3,2,11,08,40,291,32,32,39,189,12,51,31,160,,18,23,123,*7E
$GPGSV,3,3,11,24,22,076,,11,19,310,21,15,09,045,20*49
$GPRMC,203721.000,A,4907.9757,N,12234.8859,W,1.63,164.14,180920,,,A*75
$GPVTG,164.14,T,,M,1.63,N,3.02,K,A*3E
$GPGGA,203722.000,4907.9743,N,12234.8867,W,1,6,1.35,-9.7,M,-16.6,M,,*42
$GPGSA,A,3,21,15,32,10,08,27,,,,,,,1.62,1.35,0.90*03
$GPRMC,203722.000,A,4907.9743,N,12234.8867,W,1.67,166.18,180920,,,A*74
$GPVTG,166.18,T,,M,1.67,N,3.10,K,A*37
$GPGGA,203723.000,4907.9732,N,12234.8873,W,1,6,1.35,-9.0,M,-16.6,M,,*47
$GPGSA,A,3,21,15,32,10,08,27,,,,,,,1.62,1.35,0.90*03
$GPRMC,203723.000,A,4907.9732,N,12234.8873,W,1.69,171.63,180920,,,A*72
$GPVTG,171.63,T,,M,1.69,N,3.12,K,A*31
$GPGGA,203724.000,4907.9722,N,12234.8875,W,1,6,1.35,-8.5,M,-16.6,M,,*43
$GPGSA,A,3,21,15,32,10,08,27,,,,,,,1.62,1.35,0.90*03
$GPRMC,203724.000,A,4907.9722,N,12234.8875,W,1.69,169.91,180920,,,A*76
$GPVTG,169.91,T,,M,1.69,N,3.12,K,A*35
$GPGGA,203725.000,4907.9713,N,12234.8879,W,1,6,1.35,-8.4,M,-16.6,M,,*4D
$GPGSA,A,3,21,15,32,10,08,27,,,,,,,1.62,1.35,0.90*03
$GPRMC,203725.000,A,4907.9713,N,12234.8879,W,1.69,170.92,180920,,,A*72
$GPVTG,170.92,T,,M,1.69,N,3.13,K,A*3F
$GPGGA,203726.000,4907.9709,N,12234.8878,W,1,5,2.23,-8.4,M,-16.6,M,,*43
$GPGSA,A,3,21,15,10,08,27,,,,,,,,2.41,2.23,0.91*05
$GPGSV,3,1,11,10,83,005,23,21,57,298,28,20,51,075,,27,48,242,20*76
$GPGSV,3,2,11,08,40,291,32,32,39,189,,51,31,160,,18,23,123,*7D
$GPGSV,3,3,11,24,22,076,,11,19,310,,15,09,044,20*4B
$GPRMC,203726.000,A,4907.9709,N,12234.8878,W,1.72,168.63,180920,,,A*76
$GPVTG,168.63,T,,M,1.72,N,3.19,K,A*38
$GPGGA,203727.000,4907.9706,N,12234.8874,W,1,5,2.23,-8.3,M,-16.6,M,,*46
$GPGSA,A,3,21,15,10,08,27,,,,,,,,2.41,2.23,0.91*05
$GPRMC,203727.000,A,4907.9706,N,12234.8874,W,1.74,164.30,180920,,,A*78
$GPVTG,164.30,T,,M,1.74,N,3.22,K,A*3C
$GPGGA,203728.000,4907.9704,N,12234.8870,W,1,5,2.23,-8.0,M,-16.6,M,,*4C
$GPGSA,A,3,21,15,10,08,27,,,,,,,,2.41,2.23,0.91*05
$GPRMC,203728.000,A,4907.9704,N,12234.8870,W,1.75,162.12,180920,,,A*76
$GPVTG,162.12,T,,M,1.75,N,3.24,K,A*3D
$GPGGA,203729.000,4907.9702,N,12234.8875,W,1,6,1.89,-7.7,M,-16.6,M,,*46
$GPGSA,A,3,21,15,10,20,08,27,,,,,,,2.09,1.89,0.90*09
$GPRMC,203729.000,A,4907.9702,N,12234.8875,W,1.74,164.61,180920,,,A*77
$GPVTG,164.61,T,,M,1.74,N,3.22,K,A*38
$GPGGA,203730.000,4907.9706,N,12234.8870,W,1,6,1.89,-6.4,M,-16.6,M,,*4D
$GPGSA,A,3,21,15,10,20,08,27,,,,,,,2.09,1.89,0.90*09
$GPRMC,203730.000,A,4907.9706,N,12234.8870,W,1.57,160.33,180920,,,A*7C
$GPVTG,160.33,T,,M,1.57,N,2.91,K,A*33
$GPGGA,203731.000,4907.9705,N,12234.8870,W,1,6,1.89,-6.1,M,-16.6,M,,*4A
$GPGSA,A,3,21,15,10,20,08,27,,,,,,,2.09,1.89,0.90*09
$GPGSV,3,1,11,10,83,005,23,21,57,298,27,20,51,075,17,27,48,242,20*7F
$GPGSV,3,2,11,08,40,291,32,32,39,189,,44,33,172,,18,23,123,*78
$GPGSV,3,3,11,24,22,076,,11,19,310,,15,09,044,19*41
$GPRMC,203731.000,A,4907.9705,N,12234.8870,W,1.56,157.33,180920,,,A*7B
$GPVTG,157.33,T,,M,1.56,N,2.90,K,A*37
$GPGGA,203732.000,4907.9705,N,12234.8872,W,1,6,1.89,-6.0,M,-16.6,M,,*4A
$GPGSA,A,3,21,15,10,20,08,27,,,,,,,2.09,1.89,0.90*09
$GPRMC,203732.000,A,4907.9705,N,12234.8872,W,1.50,156.59,180920,,,A*71
$GPVTG,156.59,T,,M,1.50,N,2.77,K,A*35
$GPGGA,203733.000,4907.9706,N,12234.8873,W,1,6,1.89,-5.7,M,-16.6,M,,*4D
$GPGSA,A,3,21,15,10,20,08,27,,,,,,,2.09,1.89,0.90*09
$GPRMC,203733.000,A,4907.9706,N,12234.8873,W,1.25,156.64,180920,,,A*7E
$GPVTG,156.64,T,,M,1.25,N,2.32,K,A*38
$GPGGA,203734.000,4907.9702,N,12234.8872,W,1,6,1.89,-6.1,M,-16.6,M,,*4A
$GPGSA,A,3,21,15,10,20,08,27,,,,,,,2.09,1.89,0.90*09
$GPRMC,203734.000,A,4907.9702,N,12234.8872,W,1.42,151.62,180920,,,A*7C
$GPVTG,151.62,T,,M,1.42,N,2.63,K,A*3C
$GPGGA,203735.000,4907.9709,N,12234.8871,W,1,6,1.89,-5.6,M,-16.6,M,,*47
$GPGSA,A,3,21,15,10,20,08,27,,,,,,,2.09,1.89,0.90*09
$GPRMC,203735.000,A,4907.9709,N,12234.8871,W,1.39,148.76,180920,,,A*74
$GPVTG,148.76,T,,M,1.39,N,2.57,K,A*3A
$GPGGA,203736.000,4907.9714,N,12234.8873,W,1,7,1.54,-5.6,M,-16.6,M,,*4B
$GPGSA,A,3,21,15,10,20,08,11,27,,,,,,1.79,1.54,0.90*0D
$GPGSV,3,1,11,10,83,005,25,21,57,298,28,20,51,075,15,27,48,242,21*75
$GPGSV,3,2,11,08,40,291,34,32,39,189,,46,33,188,,18,23,123,*79
$GPGSV,3,3,11,24,22,076,,11,19,310,17,15,09,044,20*4D
$GPRMC,203736.000,A,4907.9714,N,12234.8873,W,1.32,146.60,180920,,,A*7B
$GPVTG,146.60,T,,M,1.32,N,2.45,K,A*3B
$GPGGA,203737.000,4907.9717,N,12234.8877,W,1,7,1.54,-5.8,M,-16.6,M,,*43
$GPGSA,A,3,21,15,10,20,08,11,27,,,,,,1.79,1.54,0.90*0D
$GPRMC,203737.000,A,4907.9717,N,12234.8877,W,1.06,151.21,180920,,,A*79
$GPVTG,151.21,T,,M,1.06,N,1.97,K,A*33
$GPGGA,203738.000,4907.9722,N,12234.8876,W,1,7,1.54,-5.6,M,-16.6,M,,*45
$GPGSA,A,3,21,15,10,20,08,11,27,,,,,,1.79,1.54,0.90*0D
$GPRMC,203738.000,A,4907.9722,N,12234.8876,W,1.00,153.99,180920,,,A*76
$GPVTG,153.99,T,,M,1.00,N,1.85,K,A*37
$GPGGA,203739.000,4907.9730,N,12234.8879,W,1,6,1.89,-5.0,M,-16.6,M,,*4F
$GPGSA,A,3,21,15,10,20,08,27,,,,,,,2.09,1.89,0.90*09
$GPRMC,203739.000,A,4907.9730,N,12234.8879,W,0.93,150.64,180920,,,A*71
$GPVTG,150.64,T,,M,0.93,N,1.73,K,A*34
$GPGGA,203740.000,4907.9737,N,12234.8886,W,1,6,1.89,-4.7,M,-16.6,M,,*40
$GPGSA,A,3,21,15,10,20,08,27,,,,,,,2.09,1.89,0.90*09
$GPRMC,203740.000,A,4907.9737,N,12234.8886,W,0.75,149.94,180920,,,A*77
$GPVTG,149.94,T,,M,0.75,N,1.39,K,A*35
$GPGGA,203741.000,4907.9745,N,12234.8885,W,1,7,1.54,-4.5,M,-16.6,M,,*44
$GPGSA,A,3,21,15,10,20,08,11,27,,,,,,1.79,1.54,0.90*0D
$GPGSV,3,1,11,10,83,005,25,21,57,298,29,20,51,075,13,27,48,241,21*71
$GPGSV,3,2,11,08,40,291,34,32,39,189,,46,33,188,,18,23,123,*79
$GPGSV,3,3,11,24,22,076,,11,19,310,18,15,09,044,21*43
$GPRMC,203741.000,A,4907.9745,N,12234.8885,W,0.75,139.10,180920,,,A*7B
$GPVTG,139.10,T,,M,0.75,N,1.38,K,A*3F
$GPGGA,203742.000,4907.9752,N,12234.8884,W,1,7,1.54,-4.4,M,-16.6,M,,*41
$GPGSA,A,3,21,15,10,20,08,11,27,,,,,,1.79,1.54,0.90*0D
$GPRMC,203742.000,A,4907.9752,N,12234.8884,W,0.71,134.38,180920,,,A*7C
$GPVTG,134.38,T,,M,0.71,N,1.32,K,A*36
$GPGGA,203743.000,4907.9759,N,12234.8883,W,1,7,1.54,-4.3,M,-16.6,M,,*4B
$GPGSA,A,3,21,15,10,20,08,11,27,,,,,,1.79,1.54,0.90*0D
$GPRMC,203743.000,A,4907.9759,N,12234.8883,W,0.67,128.07,180920,,,A*77
$GPVTG,128.07,T,,M,0.67,N,1.25,K,A*36
$GPGGA,203744.000,4907.9763,N,12234.8882,W,1,7,1.54,-4.2,M,-16.6,M,,*45
$GPGSA,A,3,21,15,10,20,08,11,27,,,,,,1.79,1.54,0.90*0D
$GPRMC,203744.000,A,4907.9763,N,12234.8882,W,0.64,122.40,180920,,,A*72
$GPVTG,122.40,T,,M,0.64,N,1.19,K,A*33
$GPGGA,203745.000,4907.9769,N,12234.8882,W,1,7,1.54,-4.0,M,-16.6,M,,*4C
$GPGSA,A,3,21,15,10,20,08,11,27,,,,,,1.79,1.54,0.90*0D
$GPRMC,203745.000,A,4907.9769,N,12234.8882,W,0.58,122.40,180920,,,A*76
$GPVTG,122.40,T,,M,0.58,N,1.08,K,A*3C
$GPGGA,203746.000,4907.9773,N,12234.8884,W,1,6,1.59,-3.7,M,-16.6,M,,*4E
$GPGSA,A,3,21,15,10,20,11,27,,,,,,,1.82,1.59,0.90*0C
$GPGSV,3,1,11,10,83,005,23,21,57,298,28,20,51,075,16,27,48,241,20*72
$GPGSV,3,2,11,08,40,291,,32,39,189,,48,32,193,,18,23,123,*7B
$GPGSV,3,3,11,24,22,076,,11,19,310,18,15,09,044,20*42
$GPRMC,203746.000,A,4907.9773,N,12234.8884,W,0.54,122.40,180920,,,A*74
$GPVTG,122.40,T,,M,0.54,N,1.00,K,A*38
$GPGGA,203747.000,4907.9777,N,12234.8886,W,1,6,1.89,-3.3,M,-16.6,M,,*40
$GPGSA,A,3,21,15,10,20,08,27,,,,,,,2.09,1.89,0.90*09
$GPRMC,203747.000,A,4907.9777,N,12234.8886,W,0.48,122.40,180920,,,A*7E
$GPVTG,122.40,T,,M,0.48,N,0.88,K,A*34
$GPGGA,203748.000,4907.9781,N,12234.8888,W,1,7,1.54,-2.9,M,-16.6,M,,*42
$GPGSA,A,3,21,15,10,20,08,11,27,,,,,,1.79,1.54,0.90*0D
$GPRMC,203748.000,A,4907.9781,N,12234.8888,W,0.43,122.40,180920,,,A*7D
$GPVTG,122.40,T,,M,0.43,N,0.80,K,A*37
$GPGGA,203749.000,4907.9781,N,12234.8886,W,1,7,1.54,-3.0,M,-16.6,M,,*45
$GPGSA,A,3,21,15,10,20,08,11,27,,,,,,1.78,1.54,0.90*0C
$GPRMC,203749.000,A,4907.9781,N,12234.8886,W,0.38,122.40,180920,,,A*7E
$GPVTG,122.40,T,,M,0.38,N,0.71,K,A*35
$GPGGA,203750.000,4907.9781,N,12234.8885,W,1,7,1.54,-3.0,M,-16.6,M,,*4E
$GPGSA,A,3,21,15,10,20,08,11,27,,,,,,1.78,1.54,0.90*0C
$GPRMC,203750.000,A,4907.9781,N,12234.8885,W,0.45,122.40,180920,,,A*7F
$GPVTG,122.40,T,,M,0.45,N,0.83,K,A*32
$GPGGA,203751.000,4907.9781,N,12234.8883,W,1,7,1.54,-3.1,M,-16.6,M,,*48
$GPGSA,A,3,21,15,10,20,08,11,27,,,,,,1.78,1.54,0.90*0C
$GPGSV,3,1,11,10,83,005,23,21,57,298,18,20,51,075,19,27,48,241,29*77
$GPGSV,3,2,11,08,40,291,24,32,39,189,,48,32,193,,18,23,123,*7D
$GPGSV,3,3,11,24,22,076,,11,19,310,18,15,09,044,17*46
$GPRMC,203751.000,A,4907.9781,N,12234.8883,W,0.75,101.08,180920,,,A*76
$GPVTG,101.08,T,,M,0.75,N,1.39,K,A*3C
$GPGGA,203752.000,4907.9806,N,12234.8887,W,1,7,1.54,-1.8,M,-16.6,M,,*44
$GPGSA,A,3,21,15,10,20,08,11,27,,,,,,1.78,1.54,0.90*0C
$GPRMC,203752.000,A,4907.9806,N,12234.8887,W,0.81,158.75,180920,,,A*7C
$GPVTG,158.75,T,,M,0.81,N,1.51,K,A*3F
$GPGGA,203753.000,4907.9831,N,12234.8896,W,1,8,1.07,0.3,M,-16.6,M,,*6F
$GPGSA,A,3,21,15,32,10,20,08,11,27,,,,,1.36,1.07,0.84*04
$GPRMC,203753.000,A,4907.9831,N,12234.8896,W,1.56,155.64,180920,,,A*7F
$GPVTG,155.64,T,,M,1.56,N,2.89,K,A*3F
$GPGGA,203754.000,4907.9836,N,12234.8904,W,1,8,1.07,1.2,M,-16.6,M,,*65
$GPGSA,A,3,21,15,32,10,20,08,11,27,,,,,1.36,1.07,0.84*04
$GPRMC,203754.000,A,4907.9836,N,12234.8904,W,1.98,174.57,180920,,,A*74
$GPVTG,174.57,T,,M,1.98,N,3.67,K,A*3F
$GPGGA,203755.000,4907.9836,N,12234.8912,W,1,8,1.07,2.4,M,-16.6,M,,*66
$GPGSA,A,3,21,15,32,10,20,08,11,27,,,,,1.36,1.07,0.84*04
$GPRMC,203755.000,A,4907.9836,N,12234.8912,W,2.97,178.26,180920,,,A*74
$GPVTG,178.26,T,,M,2.97,N,5.50,K,A*3B
$GPGGA,203756.000,4907.9829,N,12234.8916,W,1,8,1.07,3.4,M,-16.6,M,,*6E
$GPGSA,A,3,21,15,32,10,20,08,11,27,,,,,1.36,1.07,0.84*04
$GPGSV,3,1,11,10,83,007,24,21,57,298,21,20,51,075,17,27,48,241,32*7C
$GPGSV,3,2,11,08,40,291,23,32,39,189,24,48,32,193,,18,23,123,*7C
$GPGSV,3,3,11,24,22,076,,11,19,310,20,15,09,044,23*4A
$GPRMC,203756.000,A,4907.9829,N,12234.8916,W,3.82,180.34,180920,,,A*7C
$GPVTG,180.34,T,,M,3.82,N,7.08,K,A*35
$GPGGA,203757.000,4907.9822,N,12234.8917,W,1,8,1.07,4.1,M,-16.6,M,,*67
$GPGSA,A,3,21,15,32,10,20,08,11,27,,,,,1.36,1.07,0.84*04
$GPRMC,203757.000,A,4907.9822,N,12234.8917,W,4.01,174.71,180920,,,A*71
$GPVTG,174.71,T,,M,4.01,N,7.44,K,A*3B
$GPGGA,203758.000,4907.9814,N,12234.8916,W,1,7,1.27,4.9,M,-16.6,M,,*69
$GPGSA,A,3,21,15,32,10,20,08,27,,,,,,2.17,1.27,1.76*0A
$GPRMC,203758.000,A,4907.9814,N,12234.8916,W,4.31,172.83,180920,,,A*72
$GPVTG,172.83,T,,M,4.31,N,8.00,K,A*3C
$GPGGA,203759.000,4907.9805,N,12234.8910,W,1,7,1.27,5.4,M,-16.6,M,,*62
$GPGSA,A,3,21,15,32,10,20,08,27,,,,,,2.17,1.27,1.76*0A
$GPRMC,203759.000,A,4907.9805,N,12234.8910,W,4.79,172.38,180920,,,A*79
$GPVTG,172.38,T,,M,4.79,N,8.87,K,A*3F
$GPGGA,203800.000,4907.9790,N,12234.8914,W,1,8,1.13,6.4,M,-16.6,M,,*6D
$GPGSA,A,3,21,15,32,10,20,08,11,27,,,,,1.94,1.13,1.58*09
$GPRMC,203800.000,A,4907.9790,N,12234.8914,W,4.62,178.16,180920,,,A*71
$GPVTG,178.16,T,,M,4.62,N,8.55,K,A*3C
$GPGGA,203801.000,4907.9775,N,12234.8913,W,1,8,1.13,7.1,M,-16.6,M,,*64
$GPGSA,A,3,21,15,32,10,20,08,11,27,,,,,1.94,1.13,1.58*09
$GPGSV,3,1,11,10,83,007,24,21,57,298,23,20,51,075,18,27,48,241,28*7A
$GPGSV,3,2,11,08,40,291,26,32,39,189,19,48,32,193,,18,23,123,*77
$GPGSV,3,3,11,24,22,076,,11,19,310,30,15,09,044,22*4A
$GPRMC,203801.000,A,4907.9775,N,12234.8913,W,4.79,186.19,180920,,,A*78
$GPVTG,186.19,T,,M,4.79,N,8.87,K,A*37
$GPGGA,203802.000,4907.9755,N,12234.8907,W,1,8,1.13,7.8,M,-16.6,M,,*69
$GPGSA,A,3,21,15,32,10,20,08,11,27,,,,,1.94,1.13,1.58*09
$GPRMC,203802.000,A,4907.9755,N,12234.8907,W,5.60,177.37,180920,,,A*77
$GPVTG,177.37,T,,M,5.60,N,10.38,K,A*01
$GPGGA,203803.000,4907.9732,N,12234.8897,W,1,8,1.07,8.6,M,-16.6,M,,*65
$GPGSA,A,3,21,15,32,10,20,08,11,27,,,,,1.36,1.07,0.84*04
$GPRMC,203803.000,A,4907.9732,N,12234.8897,W,6.25,174.90,180920,,,A*73
$GPVTG,174.90,T,,M,6.25,N,11.57,K,A*05
$GPGGA,203804.000,4907.9710,N,12234.8893,W,1,7,1.24,9.7,M,-16.6,M,,*68
$GPGSA,A,3,21,15,32,10,08,11,27,,,,,,2.10,1.24,1.69*02
$GPRMC,203804.000,A,4907.9710,N,12234.8893,W,6.69,176.59,180920,,,A*7F
$GPVTG,176.59,T,,M,6.69,N,12.39,K,A*01
$GPGGA,203805.000,4907.9686,N,12234.8894,W,1,7,1.16,10.7,M,-16.6,M,,*59
$GPGSA,A,3,21,15,32,10,08,11,27,,,,,,1.45,1.16,0.86*00
$GPRMC,203805.000,A,4907.9686,N,12234.8894,W,7.27,180.41,180920,,,A*7C
$GPVTG,180.41,T,,M,7.27,N,13.46,K,A*03
$GPGGA,203806.000,4907.9660,N,12234.8895,W,1,7,1.24,12.1,M,-16.6,M,,*56
$GPGSA,A,3,21,15,32,10,08,11,27,,,,,,2.10,1.24,1.70*0A
$GPGSV,3,1,11,10,83,007,23,21,57,298,28,20,50,075,,27,48,241,20*76
$GPGSV,3,2,11,08,40,291,31,32,39,189,17,48,32,193,,18,22,123,*7E
$GPGSV,3,3,11,24,22,076,,11,19,310,26,15,09,044,19*45
$GPRMC,203806.000,A,4907.9660,N,12234.8895,W,7.88,179.31,180920,,,A*72
$GPVTG,179.31,T,,M,7.88,N,14.61,K,A*05
$GPGGA,203807.000,4907.9625,N,12234.8914,W,1,7,1.16,13.2,M,-16.6,M,,*5D
$GPGSA,A,3,21,15,32,10,08,11,27,,,,,,1.45,1.16,0.86*00
$GPRMC,203807.000,A,4907.9625,N,12234.8914,W,9.64,183.73,180920,,,A*75
$GPVTG,183.73,T,,M,9.64,N,17.86,K,A*00
$GPGGA,203808.000,4907.9587,N,12234.8936,W,1,7,1.24,14.2,M,-16.6,M,,*5F
$GPGSA,A,3,21,15,32,10,08,11,27,,,,,,2.10,1.24,1.70*0A
$GPRMC,203808.000,A,4907.9587,N,12234.8936,W,11.02,187.81,180920,,,A*41
$GPVTG,187.81,T,,M,11.02,N,20.41,K,A*3F
$GPGGA,203809.000,4907.9548,N,12234.8957,W,1,7,1.16,15.2,M,-16.6,M,,*5A
$GPGSA,A,3,21,15,32,10,08,11,27,,,,,,1.45,1.16,0.86*00
$GPRMC,203809.000,A,4907.9548,N,12234.8957,W,12.46,187.80,180920,,,A*46
$GPVTG,187.80,T,,M,12.46,N,23.09,K,A*32
$GPGGA,203810.000,4907.9509,N,12234.8970,W,1,7,1.24,16.3,M,-16.6,M,,*51
$GPGSA,A,3,21,15,32,10,08,11,27,,,,,,2.10,1.24,1.70*0A
$GPRMC,203810.000,A,4907.9509,N,12234.8970,W,12.98,184.18,180920,,,A*4F
$GPVTG,184.18,T,,M,12.98,N,24.06,K,A*3B
$GPGGA,203811.000,4907.9472,N,12234.8968,W,1,6,2.37,16.8,M,-16.6,M,,*5F
$GPGSA,A,3,21,32,10,08,11,27,,,,,,,3.52,2.37,2.60*0A
$GPGSV,3,1,11,10,83,007,21,21,57,298,27,20,50,075,,27,48,241,19*71
$GPGSV,3,2,11,08,40,291,30,32,39,189,13,51,31,160,,18,22,123,*7C
$GPGSV,3,3,11,24,22,075,,11,19,310,26,15,09,044,*4E
$GPRMC,203811.000,A,4907.9472,N,12234.8968,W,13.87,181.31,180920,,,A*4B
$GPVTG,181.31,T,,M,13.87,N,25.70,K,A*3A
$GPGGA,203812.000,4907.9436,N,12234.8963,W,1,6,2.37,17.4,M,-16.6,M,,*5A
$GPGSA,A,3,21,32,10,08,11,27,,,,,,,3.52,2.37,2.60*0A
$GPRMC,203812.000,A,4907.9436,N,12234.8963,W,13.82,181.41,180920,,,A*41
$GPVTG,181.41,T,,M,13.82,N,25.60,K,A*39
$GPGGA,203813.000,4907.9395,N,12234.8957,W,1,5,3.73,17.7,M,-16.6,M,,*53
$GPGSA,A,3,21,10,08,11,27,,,,,,,,5.87,3.73,4.54*05
$GPRMC,203813.000,A,4907.9395,N,12234.8957,W,14.33,178.36,180920,,,A*42
$GPVTG,178.36,T,,M,14.33,N,26.56,K,A*34
$GPGGA,203814.000,4907.9351,N,12234.8949,W,1,5,3.73,18.3,M,-16.6,M,,*58
$GPGSA,A,3,21,10,08,11,27,,,,,,,,5.87,3.73,4.54*05
$GPRMC,203814.000,A,4907.9351,N,12234.8949,W,15.00,178.75,180920,,,A*44
$GPVTG,178.75,T,,M,15.00,N,27.79,K,A*3E
$GPGGA,203815.000,4907.9305,N,12234.8943,W,1,5,3.73,18.7,M,-16.6,M,,*56
$GPGSA,A,3,21,10,08,11,27,,,,,,,,5.87,3.73,4.54*05
$GPRMC,203815.000,A,4907.9305,N,12234.8943,W,15.54,179.46,180920,,,A*4E
$GPVTG,179.46,T,,M,15.54,N,28.79,K,A*31
$GPGGA,203816.000,4907.9256,N,12234.8942,W,1,5,2.36,18.9,M,-16.6,M,,*5D
$GPGSA,A,3,21,10,08,11,27,,,,,,,,2.56,2.36,0.98*0A
$GPGSV,3,1,11,10,83,007,22,21,57,298,28,20,50,075,,27,48,241,19*7D
$GPGSV,3,2,11,08,40,291,28,32,39,189,,51,31,160,,18,22,123,*77
$GPGSV,3,3,11,24,22,075,,11,19,310,23,15,09,044,*4B
$GPRMC,203816.000,A,4907.9256,N,12234.8942,W,16.55,179.24,180920,,,A*4D
$GPVTG,179.24,T,,M,16.55,N,30.67,K,A*31
$GPGGA,203817.000,4907.9205,N,12234.8940,W,1,5,2.36,19.2,M,-16.6,M,,*52
$GPGSA,A,3,21,10,08,11,27,,,,,,,,2.56,2.36,0.98*0A
$GPRMC,203817.000,A,4907.9205,N,12234.8940,W,17.00,181.69,180920,,,A*47
$GPVTG,181.69,T,,M,17.00,N,31.50,K,A*3B
$GPGGA,203818.000,4907.9153,N,12234.8939,W,1,5,2.36,19.4,M,-16.6,M,,*55
$GPGSA,A,3,21,10,08,11,27,,,,,,,,2.56,2.36,0.98*0A
$GPRMC,203818.000,A,4907.9153,N,12234.8939,W,17.65,181.68,180920,,,A*44
$GPVTG,181.68,T,,M,17.65,N,32.71,K,A*39
$GPGGA,203819.000,4907.9101,N,12234.8940,W,1,5,3.72,19.7,M,-16.6,M,,*5F
$GPGSA,A,3,21,10,08,11,27,,,,,,,,5.87,3.72,4.54*04
$GPRMC,203819.000,A,4907.9101,N,12234.8940,W,18.32,181.08,180920,,,A*47
$GPVTG,181.08,T,,M,18.32,N,33.96,K,A*3A
$GPGGA,203820.000,4907.9048,N,12234.8941,W,1,5,3.72,20.0,M,-16.6,M,,*55
$GPGSA,A,3,21,10,08,11,27,,,,,,,,5.87,3.72,4.54*04
$GPRMC,203820.000,A,4907.9048,N,12234.8941,W,18.73,181.45,180920,,,A*4C
$GPVTG,181.45,T,,M,18.73,N,34.70,K,A*39
$GPGGA,203821.000,4907.8997,N,12234.8943,W,1,5,2.36,20.2,M,-16.6,M,,*5F
$GPGSA,A,3,21,10,08,11,27,,,,,,,,2.55,2.36,0.98*09
$GPGSV,3,1,11,10,83,007,23,21,57,298,27,20,50,075,,27,48,241,19*73
$GPGSV,3,2,11,08,40,291,28,32,39,189,,18,22,123,,24,22,075,*72
$GPGSV,3,3,11,11,19,310,22,15,09,044,,34,,,*79
$GPRMC,203821.000,A,4907.8997,N,12234.8943,W,18.74,181.41,180920,,,A*46
$GPVTG,181.41,T,,M,18.74,N,34.73,K,A*39
$GPGGA,203822.000,4907.8944,N,12234.8955,W,1,6,1.76,20.4,M,-16.6,M,,*57
$GPGSA,A,3,21,10,20,08,11,27,,,,,,,2.00,1.76,0.94*00
$GPRMC,203822.000,A,4907.8944,N,12234.8955,W,18.74,183.91,180920,,,A*43
$GPVTG,183.91,T,,M,18.74,N,34.72,K,A*37
$GPGGA,203823.000,4907.8891,N,12234.8966,W,1,6,1.76,20.6,M,-16.6,M,,*5D
$GPGSA,A,3,21,10,20,08,11,27,,,,,,,2.00,1.76,0.94*00
$GPRMC,203823.000,A,4907.8891,N,12234.8966,W,18.76,188.34,180920,,,A*4D
$GPVTG,188.34,T,,M,18.76,N,34.77,K,A*34
$GPGGA,203824.000,4907.8839,N,12234.8972,W,1,6,1.76,20.7,M,-16.6,M,,*5C
$GPGSA,A,3,21,10,20,08,11,27,,,,,,,2.00,1.76,0.94*00
$GPRMC,203824.000,A,4907.8839,N,12234.8972,W,19.03,189.82,180920,,,A*42
$GPVTG,189.82,T,,M,19.03,N,35.26,K,A*3E
$GPGGA,203825.000,4907.8786,N,12234.8987,W,1,6,1.76,20.8,M,-16.6,M,,*53
$GPGSA,A,3,21,10,20,08,11,27,,,,,,,2.00,1.76,0.94*00
$GPRMC,203825.000,A,4907.8786,N,12234.8987,W,19.32,191.48,180920,,,A*4F
$GPVTG,191.48,T,,M,19.32,N,35.80,K,A*3F
$GPGGA,203826.000,4907.8728,N,12234.9007,W,1,6,1.76,21.0,M,-16.6,M,,*5D
$GPGSA,A,3,21,10,20,08,11,27,,,,,,,2.00,1.76,0.94*00
$GPGSV,3,1,11,10,83,007,22,21,57,298,19,20,50,075,24,27,48,241,17*77
$GPGSV,3,2,11,08,40,291,36,32,39,189,,18,22,123,,24,22,075,*7D
$GPGSV,3,3,11,11,19,310,14,15,09,044,,34,,,*7C
$GPRMC,203826.000,A,4907.8728,N,12234.9007,W,20.13,193.94,180920,,,A*42
$GPVTG,193.94,T,,M,20.13,N,37.29,K,A*34
$GPGGA,203827.000,4907.8671,N,12234.9030,W,1,6,1.76,21.1,M,-16.6,M,,*54
$GPGSA,A,3,21,10,20,08,11,27,,,,,,,2.00,1.76,0.94*00
$GPRMC,203827.000,A,4907.8671,N,12234.9030,W,20.62,196.26,180920,,,A*40
$GPVTG,196.26,T,,M,20.62,N,38.21,K,A*39
$GPGGA,203828.000,4907.8612,N,12234.9061,W,1,6,1.76,21.2,M,-16.6,M,,*59
$GPGSA,A,3,21,10,20,08,11,27,,,,,,,2.00,1.76,0.94*00
$GPRMC,203828.000,A,4907.8612,N,12234.9061,W,21.58,201.03,180920,,,A*4C
$GPVTG,201.03,T,,M,21.58,N,40.00,K,A*37
$GPGGA,203829.000,4907.8548,N,12234.9099,W,1,6,2.07,21.4,M,-16.6,M,,*50
$GPGSA,A,3,21,10,20,08,11,27,,,,,,,3.51,2.07,2.84*03
$GPRMC,203829.000,A,4907.8548,N,12234.9099,W,22.52,203.18,180920,,,A*47
$GPVTG,203.18,T,,M,22.52,N,41.73,K,A*33
$GPGGA,203830.000,4907.8484,N,12234.9147,W,1,6,1.76,21.5,M,-16.6,M,,*5F
$GPGSA,A,3,21,10,20,08,11,27,,,,,,,2.00,1.76,0.94*00
$GPRMC,203830.000,A,4907.8484,N,12234.9147,W,23.56,208.42,180920,,,A*4D
$GPVTG,208.42,T,,M,23.56,N,43.66,K,A*34
$GPGGA,203831.000,4907.8414,N,12234.9203,W,1,6,2.07,21.7,M,-16.6,M,,*53
$GPGSA,A,3,21,10,20,08,11,27,,,,,,,3.51,2.07,2.83*04
$GPGSV,3,1,11,10,83,009,21,21,57,298,23,20,50,075,24,27,48,241,20*77
$GPGSV,3,2,11,08,40,291,34,32,39,189,,18,22,123,,24,22,075,*7F
$GPGSV,3,3,11,11,19,310,16,15,09,044,,35,,,*7F
$GPRMC,203831.000,A,4907.8414,N,12234.9203,W,24.86,212.01,180920,,,A*40
$GPVTG,212.01,T,,M,24.86,N,46.06,K,A*31
$GPGGA,203832.000,4907.8346,N,12234.9264,W,1,6,1.76,21.9,M,-16.6,M,,*5A
$GPGSA,A,3,21,10,20,08,11,27,,,,,,,2.00,1.76,0.94*00
$GPRMC,203832.000,A,4907.8346,N,12234.9264,W,26.14,213.71,180920,,,A*4D
$GPVTG,213.71,T,,M,26.14,N,48.43,K,A*31
$GPGGA,203833.000,4907.8281,N,12234.9337,W,1,6,2.07,22.2,M,-16.6,M,,*5B
$GPGSA,A,3,21,10,20,08,11,27,,,,,,,3.51,2.07,2.83*04
$GPRMC,203833.000,A,4907.8281,N,12234.9337,W,27.97,217.15,180920,,,A*4D
$GPVTG,217.15,T,,M,27.97,N,51.82,K,A*38
$GPGGA,203834.000,4907.8230,N,12234.9414,W,1,6,2.07,22.4,M,-16.6,M,,*56
$GPGSA,A,3,21,10,20,08,11,27,,,,,,,3.51,2.07,2.83*04
$GPRMC,203834.000,A,4907.8230,N,12234.9414,W,27.91,220.66,180920,,,A*40
$GPVTG,220.66,T,,M,27.91,N,51.72,K,A*31
$GPGGA,203835.000,4907.8180,N,12234.9504,W,1,6,2.07,22.7,M,-16.6,M,,*5C
$GPGSA,A,3,21,10,20,08,11,27,,,,,,,3.51,2.07,2.83*04
$GPRMC,203835.000,A,4907.8180,N,12234.9504,W,28.61,224.01,180920,,,A*4C
$GPVTG,224.01,T,,M,28.61,N,53.02,K,A*31
$GPGGA,203836.000,4907.8122,N,12234.9601,W,1,5,3.91,23.0,M,-16.6,M,,*5A
$GPGSA,A,3,21,10,20,08,11,,,,,,,,4.03,3.91,0.99*06
$GPGSV,3,1,11,10,83,009,23,21,57,298,24,20,50,075,27,27,48,241,*73
$GPGSV,3,2,11,08,40,291,20,32,39,189,,18,22,123,,24,22,075,*7A
$GPGSV,3,3,11,11,19,310,22,15,08,044,,36,,,*7A
$GPRMC,203836.000,A,4907.8122,N,12234.9601,W,29.56,226.43,180920,,,A*40
$GPVTG,226.43,T,,M,29.56,N,54.77,K,A*35
$GPGGA,203837.000,4907.8069,N,12234.9711,W,1,6,2.34,23.5,M,-16.6,M,,*5D
$GPGSA,A,3,21,15,10,20,08,11,,,,,,,2.54,2.34,0.99*08
$GPRMC,203837.000,A,4907.8069,N,12234.9711,W,30.98,232.94,180920,,,A*4A
$GPVTG,232.94,T,,M,30.98,N,57.41,K,A*36
$GPGGA,203838.000,4907.8006,N,12234.9829,W,1,6,7.86,24.0,M,-16.6,M,,*51
$GPGSA,A,3,21,15,10,20,08,11,,,,,,,9.86,7.86,5.95*09
$GPRMC,203838.000,A,4907.8006,N,12234.9829,W,32.94,235.57,180920,,,A*4E
$GPVTG,235.57,T,,M,32.94,N,61.04,K,A*34
$GPGGA,203839.000,4907.7961,N,12234.9952,W,1,6,2.34,24.2,M,-16.6,M,,*54
$GPGSA,A,3,21,15,10,20,08,11,,,,,,,2.54,2.34,0.99*08
$GPRMC,203839.000,A,4907.7961,N,12234.9952,W,33.75,238.61,180920,,,A*43
$GPVTG,238.61,T,,M,33.75,N,62.54,K,A*34
$GPGGA,203840.000,4907.7918,N,12235.0080,W,1,6,2.34,24.3,M,-16.6,M,,*5B
$GPGSA,A,3,21,15,10,20,08,11,,,,,,,2.54,2.34,0.99*08
$GPRMC,203840.000,A,4907.7918,N,12235.0080,W,34.38,241.18,180920,,,A*43
$GPVTG,241.18,T,,M,34.38,N,63.71,K,A*3C
$GPGGA,203841.000,4907.7878,N,12235.0218,W,1,6,2.34,24.5,M,-16.6,M,,*58
$GPGSA,A,3,21,15,10,20,08,11,,,,,,,2.54,2.34,0.99*08
$GPGSV,3,1,11,10,83,009,25,21,57,298,19,20,50,075,29,27,48,241,*75
$GPGSV,3,2,11,08,40,291,18,32,39,189,,18,22,123,,24,22,075,*71
$GPGSV,3,3,11,11,19,310,21,15,08,044,17,38,,,*71
$GPRMC,203841.000,A,4907.7878,N,12235.0218,W,35.45,243.60,180920,,,A*40
$GPVTG,243.60,T,,M,35.45,N,65.69,K,A*35
$GPGGA,203842.000,4907.7841,N,12235.0360,W,1,6,2.34,24.6,M,-16.6,M,,*5C
$GPGSA,A,3,21,15,10,20,08,11,,,,,,,2.54,2.34,0.99*08
$GPRMC,203842.000,A,4907.7841,N,12235.0360,W,35.73,245.26,180920,,,A*46
$GPVTG,245.26,T,,M,35.73,N,66.21,K,A*3B
$GPGGA,203843.000,4907.7804,N,12235.0508,W,1,5,2.41,24.8,M,-16.6,M,,*5B
$GPGSA,A,3,21,15,10,20,11,,,,,,,,2.61,2.41,0.99*04
$GPRMC,203843.000,A,4907.7804,N,12235.0508,W,36.61,247.36,180920,,,A*4D
$GPVTG,247.36,T,,M,36.61,N,67.84,K,A*36
$GPGGA,203844.000,4907.7769,N,12235.0664,W,1,5,2.42,24.9,M,-16.6,M,,*53
$GPGSA,A,3,21,15,10,20,11,,,,,,,,2.61,2.42,0.99*07
$GPRMC,203844.000,A,4907.7769,N,12235.0664,W,38.06,249.21,180920,,,A*40
$GPVTG,249.21,T,,M,38.06,N,70.53,K,A*3D
$GPGGA,203845.000,4907.7735,N,12235.0823,W,1,5,2.41,25.1,M,-16.6,M,,*5C
$GPGSA,A,3,21,15,10,20,11,,,,,,,,2.61,2.41,0.99*04
$GPRMC,203845.000,A,4907.7735,N,12235.0823,W,39.01,250.28,180920,,,A*42
$GPVTG,250.28,T,,M,39.01,N,72.28,K,A*34
$GPGGA,203846.000,4907.7704,N,12235.0989,W,1,5,2.42,25.3,M,-16.6,M,,*5D
$GPGSA,A,3,21,15,10,20,11,,,,,,,,2.61,2.42,0.99*07
$GPGSV,3,1,11,10,83,009,23,21,57,298,23,20,50,075,24,27,48,241,*77
$GPGSV,3,2,11,08,40,291,,32,39,189,,18,22,123,,24,22,075,*78
$GPGSV,3,3,11,11,19,310,18,15,08,044,15,38,,,*79
$GPRMC,203846.000,A,4907.7704,N,12235.0989,W,39.75,251.69,180920,,,A*45
$GPVTG,251.69,T,,M,39.75,N,73.67,K,A*39
$GPGGA,203847.000,4907.7678,N,12235.1157,W,1,5,2.42,25.5,M,-16.6,M,,*5A
$GPGSA,A,3,21,15,10,20,11,,,,,,,,2.61,2.42,0.99*07
$GPRMC,203847.000,A,4907.7678,N,12235.1157,W,40.25,253.46,180920,,,A*40
$GPVTG,253.46,T,,M,40.25,N,74.58,K,A*36
$GPGGA,203848.000,4907.7666,N,12235.1327,W,1,5,2.42,25.7,M,-16.6,M,,*5D
$GPGSA,A,3,21,15,10,20,11,,,,,,,,2.61,2.42,0.99*07
$GPRMC,203848.000,A,4907.7666,N,12235.1327,W,40.43,256.58,180920,,,A*4F
$GPVTG,256.58,T,,M,40.43,N,74.92,K,A*3A
$GPGGA,203849.000,4907.7662,N,12235.1493,W,1,5,2.42,26.0,M,-16.6,M,,*54
$GPGSA,A,3,21,15,10,20,11,,,,,,,,2.61,2.42,0.99*07
$GPRMC,203849.000,A,4907.7662,N,12235.1493,W,39.93,259.45,180920,,,A*42
$GPVTG,259.45,T,,M,39.93,N,73.99,K,A*36
$GPGGA,203850.000,4907.7657,N,12235.1656,W,1,5,2.41,26.1,M,-16.6,M,,*53
$GPGSA,A,3,21,15,10,20,11,,,,,,,,2.61,2.41,0.99*04
$GPRMC,203850.000,A,4907.7657,N,12235.1656,W,39.57,261.02,180920,,,A*47
$GPVTG,261.02,T,,M,39.57,N,73.32,K,A*37
$GPGGA,203851.000,4907.7661,N,12235.1819,W,1,5,2.42,26.3,M,-16.6,M,,*53
$GPGSA,A,3,21,15,10,20,11,,,,,,,,2.61,2.42,0.99*07
$GPGSV,3,1,11,10,83,009,24,21,57,298,24,20,50,075,18,27,47,241,*77
$GPGSV,3,2,11,08,40,291,,32,39,189,,18,22,123,,24,22,075,*78
$GPGSV,3,3,11,11,19,310,17,15,08,044,15,41,,,*78
$GPRMC,203851.000,A,4907.7661,N,12235.1819,W,39.28,263.20,180920,,,A*4C
$GPVTG,263.20,T,,M,39.28,N,72.78,K,A*32
$GPGGA,203852.000,4907.7661,N,12235.1981,W,1,5,2.42,26.4,M,-16.6,M,,*57
$GPGSA,A,3,21,15,10,20,11,,,,,,,,2.61,2.42,0.99*07
$GPRMC,203852.000,A,4907.7661,N,12235.1981,W,38.90,264.23,180920,,,A*49
$GPVTG,264.23,T,,M,38.90,N,72.08,K,A*33
$GPGGA,203853.000,4907.7675,N,12235.2151,W,1,5,2.41,26.6,M,-16.6,M,,*54
$GPGSA,A,3,21,15,10,20,11,,,,,,,,2.61,2.41,0.99*04
$GPRMC,203853.000,A,4907.7675,N,12235.2151,W,39.73,267.09,180920,,,A*4C
$GPVTG,267.09,T,,M,39.73,N,73.61,K,A*3A
$GPGGA,203854.000,4907.7685,N,12235.2323,W,1,6,2.30,26.4,M,-16.6,M,,*5C
$GPGSA,A,3,21,15,10,20,24,11,,,,,,,2.50,2.30,0.96*09
$GPRMC,203854.000,A,4907.7685,N,12235.2323,W,41.24,267.52,180920,,,A*40
$GPVTG,267.52,T,,M,41.24,N,76.42,K,A*3D
$GPGGA,203855.000,4907.7687,N,12235.2501,W,1,6,2.30,26.3,M,-16.6,M,,*5E
$GPGSA,A,3,21,15,10,20,24,11,,,,,,,2.50,2.30,0.96*09
$GPRMC,203855.000,A,4907.7687,N,12235.2501,W,42.30,267.72,180920,,,A*41
$GPVTG,267.72,T,,M,42.30,N,78.38,K,A*3A
$GPGGA,203856.000,4907.7659,N,12235.2671,W,1,6,2.30,26.6,M,-16.6,M,,*5F
$GPGSA,A,3,21,15,10,20,24,11,,,,,,,2.50,2.30,0.96*09
$GPGSV,3,1,11,10,83,009,23,21,57,298,23,20,50,075,17,27,47,241,*78
$GPGSV,3,2,11,08,40,291,,32,40,189,,18,22,123,,24,22,075,20*74
$GPGSV,3,3,11,11,19,310,24,15,08,044,14,43,,,*7B
$GPRMC,203856.000,A,4907.7659,N,12235.2671,W,43.30,267.61,180920,,,A*46
$GPVTG,267.61,T,,M,43.30,N,80.23,K,A*34
$GPGGA,203857.000,4907.7641,N,12235.2843,W,1,6,2.30,26.9,M,-16.6,M,,*57
$GPGSA,A,3,21,15,10,20,24,11,,,,,,,2.50,2.30,0.96*09
$GPRMC,203857.000,A,4907.7641,N,12235.2843,W,43.60,267.43,180920,,,A*44
$GPVTG,267.43,T,,M,43.60,N,80.78,K,A*3F
$GPGGA,203858.000,4907.7639,N,12235.3011,W,1,6,2.30,27.0,M,-16.6,M,,*51
$GPGSA,A,3,21,15,10,20,24,11,,,,,,,2.50,2.30,0.96*09
$GPRMC,203858.000,A,4907.7639,N,12235.3011,W,43.65,268.10,180920,,,A*46
$GPVTG,268.10,T,,M,43.65,N,80.88,K,A*3C
$GPGGA,203859.000,4907.7647,N,12235.3196,W,1,6,5.00,27.1,M,-16.6,M,,*52
$GPGSA,A,3,21,15,10,20,24,11,,,,,,,6.20,5.00,3.67*03
$GPRMC,203859.000,A,4907.7647,N,12235.3196,W,43.94,269.07,180920,,,A*49
$GPVTG,269.07,T,,M,43.94,N,81.42,K,A*32
$GPGGA,203900.000,4907.7660,N,12235.3383,W,1,6,2.30,27.3,M,-16.6,M,,*5A
$GPGSA,A,3,21,15,10,20,24,11,,,,,,,2.50,2.30,0.96*09
$GPRMC,203900.000,A,4907.7660,N,12235.3383,W,43.95,269.62,180920,,,A*45
$GPVTG,269.62,T,,M,43.95,N,81.44,K,A*36
$GPGGA,203901.000,4907.7681,N,12235.3560,W,1,6,2.30,27.3,M,-16.6,M,,*5F
$GPGSA,A,3,21,15,10,20,24,11,,,,,,,2.50,2.30,0.96*09
$GPGSV,3,1,11,10,83,009,23,21,57,298,24,20,50,075,16,27,47,241,*7E
$GPGSV,3,2,11,08,40,291,,32,40,189,,18,22,123,,24,22,075,18*7F
$GPGSV,3,3,11,11,19,310,22,15,08,044,18,45,,,*77
$GPRMC,203901.000,A,4907.7681,N,12235.3560,W,43.42,270.60,180920,,,A*40
$GPVTG,270.60,T,,M,43.42,N,80.45,K,A*36
$GPGGA,203902.000,4907.7693,N,12235.3739,W,1,6,5.01,27.2,M,-16.6,M,,*55
$GPGSA,A,3,21,15,10,20,24,11,,,,,,,6.21,5.01,3.67*03
$GPRMC,203902.000,A,4907.7693,N,12235.3739,W,43.60,271.12,180920,,,A*4A
$GPVTG,271.12,T,,M,43.60,N,80.78,K,A*3C
$GPGGA,203903.000,4907.7703,N,12235.3915,W,1,6,2.30,27.1,M,-16.6,M,,*5A
$GPGSA,A,3,21,15,10,20,24,11,,,,,,,2.50,2.30,0.96*09
$GPRMC,203903.000,A,4907.7703,N,12235.3915,W,43.21,271.18,180920,,,A*4C
$GPVTG,271.18,T,,M,43.21,N,80.06,K,A*3A
$GPGGA,203904.000,4907.7725,N,12235.4089,W,1,6,2.30,27.1,M,-16.6,M,,*52
$GPGSA,A,3,21,15,10,20,24,11,,,,,,,2.50,2.30,0.97*08
$GPRMC,203904.000,A,4907.7725,N,12235.4089,W,42.84,271.78,180920,,,A*4C
$GPVTG,271.78,T,,M,42.84,N,79.38,K,A*39
$GPGGA,203905.000,4907.7745,N,12235.4273,W,1,6,2.30,27.2,M,-16.6,M,,*51
$GPGSA,A,3,21,15,10,20,24,11,,,,,,,2.50,2.30,0.97*08
$GPRMC,203905.000,A,4907.7745,N,12235.4273,W,43.08,272.13,180920,,,A*47
$GPVTG,272.13,T,,M,43.08,N,79.82,K,A*33
$GPGGA,203906.000,4907.7764,N,12235.4461,W,1,6,5.02,27.2,M,-16.6,M,,*52
$GPGSA,A,3,21,15,10,20,24,11,,,,,,,6.23,5.02,3.68*0D
$GPGSV,3,1,11,10,83,011,25,21,57,298,25,20,50,075,19,27,47,241,*7F
$GPGSV,3,2,11,08,40,291,,32,40,189,,18,22,123,,24,22,075,19*7E
$GPGSV,3,3,11,11,19,310,21,15,08,044,15,45,,,*79
$GPRMC,203906.000,A,4907.7764,N,12235.4461,W,43.25,272.47,180920,,,A*4C
$GPVTG,272.47,T,,M,43.25,N,80.15,K,A*35
$GPGGA,203907.000,4907.7767,N,12235.4655,W,1,5,16.60,27.3,M,-16.6,M,,*61
$GPGSA,A,3,21,10,20,24,11,,,,,,,,18.57,16.60,8.32*07
$GPRMC,203907.000,A,4907.7767,N,12235.4655,W,43.70,272.05,180920,,,A*4D
$GPVTG,272.05,T,,M,43.70,N,80.98,K,A*36
$GPGGA,203908.000,4907.7771,N,12235.4850,W,1,4,4.59,27.3,M,-16.6,M,,*5A
$GPGSA,A,3,21,10,20,11,,,,,,,,,4.70,4.59,1.00*08
$GPRMC,203908.000,A,4907.7771,N,12235.4850,W,44.08,271.92,180920,,,A*4B
$GPVTG,271.92,T,,M,44.08,N,81.68,K,A*3D
$GPGGA,203909.000,4907.7778,N,12235.5043,W,1,4,4.59,27.4,M,-16.6,M,,*5E
$GPGSA,A,3,21,10,20,11,,,,,,,,,4.70,4.59,1.00*08
$GPRMC,203909.000,A,4907.7778,N,12235.5043,W,44.09,271.76,180920,,,A*43
$GPVTG,271.76,T,,M,44.09,N,81.70,K,A*3F
$GPGGA,203910.000,4907.7784,N,12235.5239,W,1,4,4.59,27.5,M,-16.6,M,,*5B
$GPGSA,A,3,21,10,20,11,,,,,,,,,4.70,4.59,1.00*08
$GPRMC,203910.000,A,4907.7784,N,12235.5239,W,43.89,271.30,180920,,,A*4A
$GPVTG,271.30,T,,M,43.89,N,81.33,K,A*35
$GPGGA,203911.000,4907.7787,N,12235.5437,W,1,4,4.59,27.5,M,-16.6,M,,*51
$GPGSA,A,3,21,10,20,11,,,,,,,,,4.70,4.59,1.00*08
$GPGSV,3,1,11,10,83,011,25,21,57,298,26,20,50,075,22,27,47,241,*74
$GPGSV,3,2,11,08,40,291,,32,40,189,,18,22,123,,24,22,075,*76
$GPGSV,3,3,11,11,20,310,21,15,08,044,,47,,,*75
$GPRMC,203911.000,A,4907.7787,N,12235.5437,W,43.85,270.92,180920,,,A*45
$GPVTG,270.92,T,,M,43.85,N,81.25,K,A*37
$GPGGA,203912.000,4907.7789,N,12235.5630,W,1,4,4.59,27.6,M,-16.6,M,,*5A
$GPGSA,A,3,21,10,20,11,,,,,,,,,4.70,4.59,1.00*08
$GPRMC,203912.000,A,4907.7789,N,12235.5630,W,43.79,270.78,180920,,,A*4A
$GPVTG,270.78,T,,M,43.79,N,81.14,K,A*32
$GPGGA,203913.000,4907.7788,N,12235.5821,W,1,4,4.59,27.7,M,-16.6,M,,*55
$GPGSA,A,3,21,10,20,11,,,,,,,,,4.70,4.59,1.00*08
$GPRMC,203913.000,A,4907.7788,N,12235.5821,W,43.62,270.40,180920,,,A*45
$GPVTG,270.40,T,,M,43.62,N,80.83,K,A*3C
$GPGGA,203914.000,4907.7788,N,12235.6013,W,1,5,3.98,27.8,M,-16.6,M,,*5C
$GPGSA,A,3,21,10,20,24,11,,,,,,,,4.10,3.98,0.99*03
$GPRMC,203914.000,A,4907.7788,N,12235.6013,W,43.66,270.35,180920,,,A*4E
$GPVTG,270.35,T,,M,43.66,N,80.89,K,A*30
$GPGGA,203915.000,4907.7786,N,12235.6207,W,1,5,3.98,27.9,M,-16.6,M,,*55
$GPGSA,A,3,21,10,20,24,11,,,,,,,,4.10,3.98,0.99*03
$GPRMC,203915.000,A,4907.7786,N,12235.6207,W,44.00,270.19,180920,,,A*4F
$GPVTG,270.19,T,,M,44.00,N,81.53,K,A*3F
$GPGGA,203916.000,4907.7786,N,12235.6399,W,1,5,3.98,27.9,M,-16.6,M,,*50
$GPGSA,A,3,21,10,20,24,11,,,,,,,,4.10,3.98,0.99*03
$GPGSV,3,1,11,10,83,011,24,21,57,298,23,20,50,075,21,27,47,241,*73
$GPGSV,3,2,11,08,40,291,,32,40,189,,18,22,124,,24,22,075,17*77
$GPGSV,3,3,11,11,20,310,19,15,08,044,,49,,,*70
$GPRMC,203916.000,A,4907.7786,N,12235.6399,W,44.04,270.26,180920,,,A*42
$GPVTG,270.26,T,,M,44.04,N,81.61,K,A*36
$GPGGA,203917.000,4907.7790,N,12235.6585,W,1,5,3.98,28.0,M,-16.6,M,,*5B
$GPGSA,A,3,21,10,20,24,11,,,,,,,,4.10,3.98,0.99*03
$GPRMC,203917.000,A,4907.7790,N,12235.6585,W,43.72,270.09,180920,,,A*44
$GPVTG,270.09,T,,M,43.72,N,81.01,K,A*3B
$GPGGA,203918.000,4907.7792,N,12235.6769,W,1,5,3.98,28.1,M,-16.6,M,,*57
$GPGSA,A,3,21,10,20,24,11,,,,,,,,4.10,3.98,0.99*03
$GPRMC,203918.000,A,4907.7792,N,12235.6769,W,43.12,270.06,180920,,,A*40
$GPVTG,270.06,T,,M,43.12,N,79.90,K,A*3D
$GPGGA,203919.000,4907.7805,N,12235.6951,W,1,5,3.98,28.2,M,-16.6,M,,*51
$GPGSA,A,3,21,10,20,24,11,,,,,,,,4.10,3.98,0.99*03
$GPRMC,203919.000,A,4907.7805,N,12235.6951,W,42.69,270.69,180920,,,A*41
$GPVTG,270.69,T,,M,42.69,N,79.10,K,A*31
$GPGGA,203920.000,4907.7821,N,12235.7129,W,1,5,3.98,28.3,M,-16.6,M,,*5A
$GPGSA,A,3,21,10,20,24,11,,,,,,,,4.10,3.98,0.99*03
$GPRMC,203920.000,A,4907.7821,N,12235.7129,W,42.30,271.69,180920,,,A*46
$GPVTG,271.69,T,,M,42.30,N,78.37,K,A*38
$GPGGA,203921.000,4907.7831,N,12235.7311,W,1,5,3.98,28.3,M,-16.6,M,,*53
$GPGSA,A,3,21,10,20,24,11,,,,,,,,4.10,3.98,0.99*03
$GPGSV,3,1,10,10,83,011,23,21,58,298,23,20,50,075,20,27,47,241,*7B
$GPGSV,3,2,10,08,40,291,,32,40,189,,18,22,124,,24,22,075,17*76
$GPGSV,3,3,10,11,20,310,16,15,08,044,*73
$GPRMC,203921.000,A,4907.7831,N,12235.7311,W,42.23,272.37,180920,,,A*45
$GPVTG,272.37,T,,M,42.23,N,78.26,K,A*32
$GPGGA,203922.000,4907.7848,N,12235.7491,W,1,5,3.98,28.4,M,-16.6,M,,*56
$GPGSA,A,3,21,10,20,24,11,,,,,,,,4.10,3.98,0.99*03
$GPRMC,203922.000,A,4907.7848,N,12235.7491,W,41.91,273.24,180920,,,A*4E
$GPVTG,273.24,T,,M,41.91,N,77.66,K,A*30
$GPGGA,203923.000,4907.7858,N,12235.7672,W,1,5,3.98,28.4,M,-16.6,M,,*59
$GPGSA,A,3,21,10,20,24,11,,,,,,,,4.10,3.98,0.99*03
$GPRMC,203923.000,A,4907.7858,N,12235.7672,W,41.64,273.12,180920,,,A*4E
$GPVTG,273.12,T,,M,41.64,N,77.16,K,A*38
$GPGGA,203924.000,4907.7870,N,12235.7847,W,1,5,3.98,28.5,M,-16.6,M,,*5D
$GPGSA,A,3,21,10,20,24,11,,,,,,,,4.10,3.98,0.99*03
$GPRMC,203924.000,A,4907.7870,N,12235.7847,W,40.81,273.43,180920,,,A*45
$GPVTG,273.43,T,,M,40.81,N,75.62,K,A*37
$GPGGA,203925.000,4907.7883,N,12235.8019,W,1,5,3.98,28.5,M,-16.6,M,,*5C
$GPGSA,A,3,21,10,20,24,11,,,,,,,,4.10,3.98,0.99*03
$GPRMC,203925.000,A,4907.7883,N,12235.8019,W,40.10,273.29,180920,,,A*40
$GPVTG,273.29,T,,M,40.10,N,74.30,K,A*35
$GPGGA,203926.000,4907.7894,N,12235.8195,W,1,5,3.98,28.6,M,-16.6,M,,*5F
$GPGSA,A,3,21,10,20,24,11,,,,,,,,4.10,3.98,0.99*03
$GPGSV,3,1,10,10,83,011,24,21,58,298,23,20,50,075,21,27,47,240,*7C
$GPGSV,3,2,10,08,40,291,,32,40,189,,18,22,124,,24,22,075,17*76
$GPGSV,3,3,10,11,20,310,22,15,08,044,*74
$GPRMC,203926.000,A,4907.7894,N,12235.8195,W,40.16,273.39,180920,,,A*47
$GPVTG,273.39,T,,M,40.16,N,74.42,K,A*37
$GPGGA,203927.000,4907.7886,N,12235.8377,W,1,5,3.98,28.6,M,-16.6,M,,*53
$GPGSA,A,3,21,10,20,24,11,,,,,,,,4.10,3.98,0.99*03
$GPRMC,203927.000,A,4907.7886,N,12235.8377,W,40.42,271.38,180920,,,A*49
$GPVTG,271.38,T,,M,40.42,N,74.90,K,A*3A
$GPGGA,203928.000,4907.7891,N,12235.8554,W,1,5,16.97,28.6,M,-16.6,M,,*66
$GPGSA,A,3,21,10,20,24,11,,,,,,,,18.99,16.97,8.53*0A
$GPRMC,203928.000,A,4907.7891,N,12235.8554,W,40.62,271.27,180920,,,A*4B
$GPVTG,271.27,T,,M,40.62,N,75.26,K,A*3A
$GPGGA,203929.000,4907.7892,N,12235.8736,W,1,5,3.98,28.7,M,-16.6,M,,*58
$GPGSA,A,3,21,10,20,24,11,,,,,,,,4.10,3.98,0.99*03
$GPRMC,203929.000,A,4907.7892,N,12235.8736,W,41.06,271.02,180920,,,A*4B
$GPVTG,271.02,T,,M,41.06,N,76.08,K,A*31
$GPGGA,203930.000,4907.7898,N,12235.8917,W,1,5,3.98,28.7,M,-16.6,M,,*57
$GPGSA,A,3,21,10,20,24,11,,,,,,,,4.10,3.98,0.99*03
$GPRMC,203930.000,A,4907.7898,N,12235.8917,W,41.22,270.73,180920,,,A*45
$GPVTG,270.73,T,,M,41.22,N,76.38,K,A*33
$GPGGA,203931.000,4907.7904,N,12235.9099,W,1,5,17.02,28.8,M,-16.6,M,,*65
$GPGSA,A,3,21,10,20,24,11,,,,,,,,19.05,17.02,8.55*05
$GPGSV,3,1,11,10,83,011,24,21,58,298,24,20,50,075,21,27,47,240,*7A
$GPGSV,3,2,11,08,40,291,,32,40,189,,44,33,172,,18,22,124,*71
$GPGSV,3,3,11,24,22,075,18,11,20,310,26,15,08,044,*4C
$GPRMC,203931.000,A,4907.7904,N,12235.9099,W,41.17,270.22,180920,,,A*4C
$GPVTG,270.22,T,,M,41.17,N,76.30,K,A*39
$GPGGA,203932.000,4907.7914,N,12235.9278,W,1,5,17.04,28.8,M,-16.6,M,,*6C
$GPGSA,A,3,21,10,20,24,11,,,,,,,,19.07,17.04,8.57*03
$GPRMC,203932.000,A,4907.7914,N,12235.9278,W,41.38,270.76,180920,,,A*4F
$GPVTG,270.76,T,,M,41.38,N,76.68,K,A*38
$GPGGA,203933.000,4907.7757,N,12235.9472,W,1,6,2.31,28.9,M,-16.6,M,,*58
$GPGSA,A,3,21,15,10,20,24,11,,,,,,,2.50,2.31,0.97*09
$GPRMC,203933.000,A,4907.7757,N,12235.9472,W,42.09,268.90,180920,,,A*4B
$GPVTG,268.90,T,,M,42.09,N,77.99,K,A*37
$GPGGA,203934.000,4907.7746,N,12235.9642,W,1,6,5.11,29.2,M,-16.6,M,,*51
$GPGSA,A,3,21,15,10,20,24,11,,,,,,,6.34,5.11,3.75*05
$GPRMC,203934.000,A,4907.7746,N,12235.9642,W,42.71,270.06,180920,,,A*44
$GPVTG,270.06,T,,M,42.71,N,79.15,K,A*34
$GPGGA,203935.000,4907.7747,N,12235.9815,W,1,6,2.31,29.3,M,-16.6,M,,*59
$GPGSA,A,3,21,15,10,20,24,11,,,,,,,2.50,2.31,0.97*09
$GPRMC,203935.000,A,4907.7747,N,12235.9815,W,42.67,270.61,180920,,,A*4E
$GPVTG,270.61,T,,M,42.67,N,79.08,K,A*3E
$GPGGA,203936.000,4907.7754,N,12235.9987,W,1,6,2.31,29.4,M,-16.6,M,,*55
$GPGSA,A,3,21,15,10,20,24,11,,,,,,,2.50,2.31,0.97*09
$GPGSV,3,1,11,10,83,011,24,21,58,298,23,20,50,075,20,27,47,240,*7C
$GPGSV,3,2,11,08,40,291,,32,40,189,,46,33,188,,18,22,124,*76
$GPGSV,3,3,11,24,22,075,16,11,20,310,24,15,08,044,24*46
$GPRMC,203936.000,A,4907.7754,N,12235.9987,W,42.20,271.25,180920,,,A*47
$GPVTG,271.25,T,,M,42.20,N,78.20,K,A*37
$GPGGA,203937.000,4907.7771,N,12236.0165,W,1,6,2.31,29.5,M,-16.6,M,,*5C
$GPGSA,A,3,21,15,10,20,24,11,,,,,,,2.50,2.31,0.97*09
$GPRMC,203937.000,A,4907.7771,N,12236.0165,W,42.23,272.12,180920,,,A*4B
$GPVTG,272.12,T,,M,42.23,N,78.26,K,A*35
$GPGGA,203938.000,4907.7788,N,12236.0347,W,1,6,2.31,29.5,M,-16.6,M,,*57
$GPGSA,A,3,21,15,10,20,24,11,,,,,,,2.50,2.31,0.97*09
$GPRMC,203938.000,A,4907.7788,N,12236.0347,W,42.40,272.41,180920,,,A*43
$GPVTG,272.41,T,,M,42.40,N,78.57,K,A*30
$GPGGA,203939.000,4907.7812,N,12236.0530,W,1,6,2.31,29.7,M,-16.6,M,,*5E
$GPGSA,A,3,21,15,10,20,24,11,,,,,,,2.50,2.31,0.97*09
$GPRMC,203939.000,A,4907.7812,N,12236.0530,W,42.36,274.20,180920,,,A*48
$GPVTG,274.20,T,,M,42.36,N,78.49,K,A*3F
$GPGGA,203940.000,4907.7835,N,12236.0708,W,1,6,5.13,29.8,M,-16.6,M,,*54
$GPGSA,A,3,21,15,10,20,24,11,,,,,,,6.36,5.13,3.76*06
$GPRMC,203940.000,A,4907.7835,N,12236.0708,W,42.36,275.51,180920,,,A*4D
$GPVTG,275.51,T,,M,42.36,N,78.50,K,A*30
$GPGGA,203941.000,4907.7865,N,12236.0881,W,1,6,2.31,29.8,M,-16.6,M,,*59
$GPGSA,A,3,21,15,10,20,24,11,,,,,,,2.50,2.31,0.97*09
$GPGSV,3,1,11,10,83,013,27,21,58,298,18,20,50,075,26,27,47,240,*73
$GPGSV,3,2,11,08,40,290,,32,40,189,,46,33,188,,18,22,124,*77
$GPGSV,3,3,11,24,22,075,17,11,20,310,16,15,08,044,19*48
$GPRMC,203941.000,A,4907.7865,N,12236.0881,W,41.78,277.05,180920,,,A*4D
$GPVTG,277.05,T,,M,41.78,N,77.43,K,A*37
$GPGGA,203942.000,4907.7889,N,12236.1053,W,1,6,2.31,29.9,M,-16.6,M,,*5F
$GPGSA,A,3,21,15,10,20,24,11,,,,,,,2.50,2.31,0.97*09
$GPRMC,203942.000,A,4907.7889,N,12236.1053,W,40.70,278.57,180920,,,A*4B
$GPVTG,278.57,T,,M,40.70,N,75.41,K,A*36
$GPGGA,203943.000,4907.7915,N,12236.1221,W,1,6,2.31,30.0,M,-16.6,M,,*5C
$GPGSA,A,3,21,15,10,20,24,11,,,,,,,2.50,2.31,0.97*09
$GPRMC,203943.000,A,4907.7915,N,12236.1221,W,39.48,280.10,180920,,,A*48
$GPVTG,280.10,T,,M,39.48,N,73.16,K,A*33
$GPGGA,203944.000,4907.7944,N,12236.1387,W,1,5,2.65,30.1,M,-16.6,M,,*51
$GPGSA,A,3,21,15,10,20,24,,,,,,,,2.83,2.65,0.98*09
$GPRMC,203944.000,A,4907.7944,N,12236.1387,W,38.77,281.33,180920,,,A*4B
$GPVTG,281.33,T,,M,38.77,N,71.85,K,A*36
$GPGGA,203945.000,4907.8004,N,12236.1545,W,1,5,2.65,30.3,M,-16.6,M,,*58
$GPGSA,A,3,21,15,10,20,24,,,,,,,,2.83,2.65,0.98*09
$GPRMC,203945.000,A,4907.8004,N,12236.1545,W,38.82,284.52,180920,,,A*48
$GPVTG,284.52,T,,M,38.82,N,71.94,K,A*3E
$GPGGA,203946.000,4907.8052,N,12236.1700,W,1,5,2.65,30.4,M,-16.6,M,,*5C
$GPGSA,A,3,21,15,10,20,24,,,,,,,,2.83,2.65,0.98*09
$GPGSV,3,1,10,10,83,013,26,21,58,298,18,20,50,075,26,27,47,240,*73
$GPGSV,3,2,10,08,40,290,,32,40,189,,18,22,124,,24,22,075,17*77
$GPGSV,3,3,10,11,20,310,,15,08,044,18*7D
$GPRMC,203946.000,A,4907.8052,N,12236.1700,W,38.15,287.17,180920,,,A*47
$GPVTG,287.17,T,,M,38.15,N,70.69,K,A*31
$GPGGA,203947.000,4907.8125,N,12236.1859,W,1,7,1.21,31.0,M,-16.6,M,,*5B
$GPGSA,A,3,21,15,32,10,20,18,24,,,,,,1.50,1.21,0.88*0E
$GPRMC,203947.000,A,4907.8125,N,12236.1859,W,38.66,290.73,180920,,,A*44
$GPVTG,290.73,T,,M,38.66,N,71.64,K,A*3D
$GPGGA,203948.000,4907.8241,N,12236.2008,W,1,7,1.21,32.4,M,-16.6,M,,*5D
$GPGSA,A,3,21,15,32,10,20,18,24,,,,,,1.50,1.21,0.88*0E
$GPRMC,203948.000,A,4907.8241,N,12236.2008,W,39.59,296.63,180920,,,A*4F
$GPVTG,296.63,T,,M,39.59,N,73.37,K,A*33
$GPGGA,203949.000,4907.8314,N,12236.2153,W,1,7,1.21,32.5,M,-16.6,M,,*53
$GPGSA,A,3,21,15,32,10,20,18,24,,,,,,1.49,1.21,0.88*06
$GPRMC,203949.000,A,4907.8314,N,12236.2153,W,40.05,300.16,180920,,,A*4B
$GPVTG,300.16,T,,M,40.05,N,74.21,K,A*38
$GPGGA,203950.000,4907.8423,N,12236.2275,W,1,7,1.21,33.1,M,-16.6,M,,*5A
$GPGSA,A,3,21,15,32,10,20,18,24,,,,,,1.50,1.21,0.88*0E
$GPRMC,203950.000,A,4907.8423,N,12236.2275,W,40.55,305.66,180920,,,A*40
$GPVTG,305.66,T,,M,40.55,N,75.14,K,A*38
$GPGGA,203951.000,4907.8510,N,12236.2404,W,1,7,1.21,33.5,M,-16.6,M,,*5E
$GPGSA,A,3,21,15,32,10,20,18,24,,,,,,1.49,1.21,0.88*06
$GPGSV,3,1,11,10,83,013,20,21,58,298,11,20,50,076,24,27,47,240,*7C
$GPGSV,3,2,11,08,40,290,,32,40,189,24,48,32,193,,18,22,124,19*7C
$GPGSV,3,3,11,24,22,075,17,11,20,310,,15,08,044,16*40
$GPRMC,203951.000,A,4907.8510,N,12236.2404,W,40.84,307.52,180920,,,A*49
$GPVTG,307.52,T,,M,40.84,N,75.67,K,A*35
$GPGGA,203952.000,4907.8592,N,12236.2535,W,1,7,1.21,33.8,M,-16.6,M,,*59
$GPGSA,A,3,21,15,32,10,20,18,24,,,,,,1.50,1.21,0.88*0E
$GPRMC,203952.000,A,4907.8592,N,12236.2535,W,41.43,309.37,180920,,,A*44
$GPVTG,309.37,T,,M,41.43,N,76.78,K,A*3F
$GPGGA,203953.000,4907.8670,N,12236.2666,W,1,7,1.21,34.0,M,-16.6,M,,*5D
$GPGSA,A,3,21,15,32,10,20,18,24,,,,,,1.50,1.21,0.88*0E
$GPRMC,203953.000,A,4907.8670,N,12236.2666,W,41.69,309.74,180920,,,A*40
$GPVTG,309.74,T,,M,41.69,N,77.25,K,A*39
$GPGGA,203954.000,4907.8748,N,12236.2793,W,1,7,1.21,34.2,M,-16.6,M,,*59
$GPGSA,A,3,21,15,32,10,20,18,24,,,,,,1.50,1.21,0.88*0E
$GPRMC,203954.000,A,4907.8748,N,12236.2793,W,41.76,310.28,180920,,,A*49
$GPVTG,310.28,T,,M,41.76,N,77.38,K,A*3A
$GPGGA,203955.000,4907.8826,N,12236.2922,W,1,7,1.21,34.5,M,-16.6,M,,*5C
$GPGSA,A,3,21,15,32,10,20,18,24,,,,,,1.49,1.21,0.88*06
$GPRMC,203955.000,A,4907.8826,N,12236.2922,W,41.77,310.65,180920,,,A*43
$GPVTG,310.65,T,,M,41.77,N,77.40,K,A*3D
$GPGGA,203956.000,4907.8905,N,12236.3056,W,1,7,1.21,34.7,M,-16.6,M,,*56
$GPGSA,A,3,21,15,32,10,20,18,24,,,,,,1.49,1.21,0.88*06
$GPGSV,3,1,11,10,83,013,18,21,58,298,15,20,50,076,23,27,47,240,*74
$GPGSV,3,2,11,08,40,290,,32,40,189,24,48,32,193,,18,22,124,21*77
$GPGSV,3,3,11,24,22,074,16,11,20,310,,15,08,044,18*4E
$GPRMC,203956.000,A,4907.8905,N,12236.3056,W,41.57,310.25,180920,,,A*4D
$GPVTG,310.25,T,,M,41.57,N,77.03,K,A*3C
$GPGGA,203957.000,4907.8987,N,12236.3188,W,1,8,1.00,35.0,M,-16.6,M,,*55
$GPGSA,A,3,21,15,32,10,20,18,24,11,,,,,1.29,1.00,0.82*09
$GPRMC,203957.000,A,4907.8987,N,12236.3188,W,41.32,310.22,180920,,,A*40
$GPVTG,310.22,T,,M,41.32,N,76.56,K,A*39
$GPGGA,203958.000,4907.9074,N,12236.3320,W,1,8,1.00,35.1,M,-16.6,M,,*5F
$GPGSA,A,3,21,15,32,10,20,18,24,11,,,,,1.29,1.00,0.82*09
$GPRMC,203958.000,A,4907.9074,N,12236.3320,W,41.65,310.15,180920,,,A*4D
$GPVTG,310.15,T,,M,41.65,N,77.18,K,A*34
$GPGGA,203959.000,4907.9156,N,12236.3450,W,1,8,1.04,35.1,M,-16.6,M,,*5B
$GPGSA,A,3,21,15,32,10,20,18,24,11,,,,,1.78,1.04,1.44*02
$GPRMC,203959.000,A,4907.9156,N,12236.3450,W,41.60,310.23,180920,,,A*4D
$GPVTG,310.23,T,,M,41.60,N,77.08,K,A*35
$GPGGA,204000.000,4907.9235,N,12236.3577,W,1,8,1.00,35.0,M,-16.6,M,,*5E
$GPGSA,A,3,21,15,32,10,20,18,24,11,,,,,1.29,1.00,0.82*09
$GPRMC,204000.000,A,4907.9235,N,12236.3577,W,40.99,310.70,180920,,,A*4C
$GPVTG,310.70,T,,M,40.99,N,75.95,K,A*32
$GPGGA,204001.000,4907.9316,N,12236.3709,W,1,8,1.04,34.7,M,-16.6,M,,*56
$GPGSA,A,3,21,15,32,10,20,18,24,11,,,,,1.78,1.04,1.44*02
$GPGSV,3,1,11,10,83,013,19,21,58,298,15,20,50,076,24,27,47,240,*72
$GPGSV,3,2,11,08,40,290,,32,40,189,25,51,31,160,,18,22,124,22*72
$GPGSV,3,3,11,24,22,074,17,11,20,310,17,15,08,044,18*49
$GPRMC,204001.000,A,4907.9316,N,12236.3709,W,40.66,310.82,180920,,,A*4B
$GPVTG,310.82,T,,M,40.66,N,75.35,K,A*35
$GPGGA,204002.000,4907.9395,N,12236.3840,W,1,8,1.04,34.5,M,-16.6,M,,*5E
$GPGSA,A,3,21,15,32,10,20,18,24,11,,,,,1.78,1.04,1.44*02
$GPRMC,204002.000,A,4907.9395,N,12236.3840,W,40.36,310.75,180920,,,A*4C
$GPVTG,310.75,T,,M,40.36,N,74.78,K,A*30
$GPGGA,204003.000,4907.9472,N,12236.3966,W,1,8,1.00,34.3,M,-16.6,M,,*56
$GPGSA,A,3,21,15,32,10,20,18,24,11,,,,,1.29,1.00,0.82*09
$GPRMC,204003.000,A,4907.9472,N,12236.3966,W,40.43,311.11,180920,,,A*47
$GPVTG,311.11,T,,M,40.43,N,74.91,K,A*36
$GPGGA,204004.000,4907.9549,N,12236.4094,W,1,8,1.00,34.1,M,-16.6,M,,*59
$GPGSA,A,3,21,15,32,10,20,18,24,11,,,,,1.29,1.00,0.82*09
$GPRMC,204004.000,A,4907.9549,N,12236.4094,W,40.59,311.02,180920,,,A*43
$GPVTG,311.02,T,,M,40.59,N,75.22,K,A*36
$GPGGA,204005.000,4907.9626,N,12236.4223,W,1,8,1.04,33.9,M,-16.6,M,,*57
$GPGSA,A,3,21,15,32,10,20,18,24,11,,,,,1.78,1.04,1.44*02
$GPRMC,204005.000,A,4907.9626,N,12236.4223,W,40.66,311.58,180920,,,A*45
$GPVTG,311.58,T,,M,40.66,N,75.34,K,A*32
$GPGGA,204006.000,4907.9701,N,12236.4349,W,1,8,1.00,33.8,M,-16.6,M,,*58
$GPGSA,A,3,21,15,32,10,20,18,24,11,,,,,1.29,1.00,0.82*09
$GPGSV,3,1,11,10,83,013,19,21,58,298,13,20,50,076,25,27,47,240,*75
$GPGSV,3,2,11,08,40,290,,32,40,189,25,51,31,160,,18,22,124,21*71
$GPGSV,3,3,11,24,22,074,17,11,20,310,17,15,08,044,16*47
$GPRMC,204006.000,A,4907.9701,N,12236.4349,W,40.22,311.58,180920,,,A*4F
$GPVTG,311.58,T,,M,40.22,N,74.53,K,A*32
$GPGGA,204007.000,4907.9774,N,12236.4473,W,1,8,1.04,33.5,M,-16.6,M,,*5C
$GPGSA,A,3,21,15,32,10,20,18,24,11,,,,,1.78,1.04,1.44*02
$GPRMC,204007.000,A,4907.9774,N,12236.4473,W,39.69,310.90,180920,,,A*46
$GPVTG,310.90,T,,M,39.69,N,73.55,K,A*37
$GPGGA,204008.000,4907.9845,N,12236.4595,W,1,8,1.00,33.4,M,-16.6,M,,*52
$GPGSA,A,3,21,15,32,10,20,18,24,11,,,,,1.29,1.00,0.82*09
$GPRMC,204008.000,A,4907.9845,N,12236.4595,W,39.25,310.81,180920,,,A*45
$GPVTG,310.81,T,,M,39.25,N,72.72,K,A*3B
$GPGGA,204009.000,4907.9916,N,12236.4718,W,1,8,1.04,33.2,M,-16.6,M,,*51
$GPGSA,A,3,21,15,32,10,20,18,24,11,,,,,1.78,1.04,1.44*02
$GPRMC,204009.000,A,4907.9916,N,12236.4718,W,39.31,310.73,180920,,,A*4C
$GPVTG,310.73,T,,M,39.31,N,72.84,K,A*3A
$GPGGA,204010.000,4907.9989,N,12236.4841,W,1,8,1.00,33.1,M,-16.6,M,,*5B
$GPGSA,A,3,21,15,32,10,20,18,24,11,,,,,1.29,1.00,0.82*09
$GPRMC,204010.000,A,4907.9989,N,12236.4841,W,39.27,310.88,180920,,,A*42
$GPVTG,310.88,T,,M,39.27,N,72.76,K,A*34
$GPGGA,204011.000,4908.0062,N,12236.4968,W,1,8,1.04,32.9,M,-16.6,M,,*57
$GPGSA,A,3,21,15,32,10,20,18,24,11,,,,,1.78,1.04,1.44*02
$GPGSV,3,1,11,10,83,013,19,21,58,298,13,20,50,076,26,27,47,240,*76
$GPGSV,3,2,11,08,40,290,,32,40,189,27,18,22,124,22,24,22,074,17*72
$GPGSV,3,3,11,11,20,310,18,15,08,044,17,34,,,*7D
$GPRMC,204011.000,A,4908.0062,N,12236.4968,W,38.85,310.36,180920,,,A*4F
$GPVTG,310.36,T,,M,38.85,N,71.99,K,A*3A
$GPGGA,204012.000,4908.0137,N,12236.5098,W,1,8,1.00,32.6,M,-16.6,M,,*59
$GPGSA,A,3,21,15,32,10,20,18,24,11,,,,,1.29,1.00,0.82*09
$GPRMC,204012.000,A,4908.0137,N,12236.5098,W,39.31,310.18,180920,,,A*48
$GPVTG,310.18,T,,M,39.31,N,72.85,K,A*36
$GPGGA,204013.000,4908.0207,N,12236.5223,W,1,8,1.04,32.2,M,-16.6,M,,*5A
$GPGSA,A,3,21,15,32,10,20,18,24,11,,,,,1.78,1.04,1.44*02
$GPRMC,204013.000,A,4908.0207,N,12236.5223,W,38.78,310.09,180920,,,A*47
$GPVTG,310.09,T,,M,38.78,N,71.87,K,A*3B
$GPGGA,204014.000,4908.0280,N,12236.5347,W,1,8,1.04,31.8,M,-16.6,M,,*58
$GPGSA,A,3,21,15,32,10,20,18,24,11,,,,,1.78,1.04,1.44*02
$GPRMC,204014.000,A,4908.0280,N,12236.5347,W,38.74,310.02,180920,,,A*4B
$GPVTG,310.02,T,,M,38.74,N,71.79,K,A*3D
$GPGGA,204015.000,4908.0351,N,12236.5468,W,1,8,1.00,31.5,M,-16.6,M,,*57
$GPGSA,A,3,21,15,32,10,20,18,24,11,,,,,1.29,1.00,0.82*09
$GPRMC,204015.000,A,4908.0351,N,12236.5468,W,38.52,310.84,180920,,,A*47
$GPVTG,310.84,T,,M,38.52,N,71.38,K,A*32
$GPGGA,204016.000,4908.0420,N,12236.5589,W,1,8,1.04,31.2,M,-16.6,M,,*58
$GPGSA,A,3,21,15,32,10,20,18,24,11,,,,,1.78,1.04,1.44*02
$GPGSV,3,1,11,10,83,015,19,21,58,298,16,20,50,076,27,27,47,240,*74
$GPGSV,3,2,11,08,40,290,,32,40,189,26,18,22,124,21,24,22,074,17*70
$GPGSV,3,3,11,11,20,310,18,15,08,044,18,35,,,*73
$GPRMC,204016.000,A,4908.0420,N,12236.5589,W,38.27,310.76,180920,,,A*44
$GPVTG,310.76,T,,M,38.27,N,70.92,K,A*3C
$GPGGA,204017.000,4908.0486,N,12236.5705,W,1,8,1.00,30.9,M,-16.6,M,,*5D
$GPGSA,A,3,21,15,32,10,20,18,24,11,,,,,1.29,1.00,0.82*09
$GPRMC,204017.000,A,4908.0486,N,12236.5705,W,37.13,310.26,180920,,,A*42
$GPVTG,310.26,T,,M,37.13,N,68.80,K,A*3B
$GPGGA,204018.000,4908.0550,N,12236.5819,W,1,7,1.08,30.7,M,-16.6,M,,*53
$GPGSA,A,3,15,32,10,20,18,24,11,,,,,,1.87,1.08,1.53*0B
$GPRMC,204018.000,A,4908.0550,N,12236.5819,W,36.28,310.54,180920,,,A*49
$GPVTG,310.54,T,,M,36.28,N,67.22,K,A*30
$GPGGA,204019.000,4908.0616,N,12236.5933,W,1,8,0.96,30.2,M,-16.6,M,,*56
$GPGSA,A,3,15,32,10,20,18,24,11,27,,,,,1.27,0.96,0.84*09
$GPRMC,204019.000,A,4908.0616,N,12236.5933,W,35.43,310.75,180920,,,A*4D
$GPVTG,310.75,T,,M,35.43,N,65.65,K,A*3C
$GPGGA,204020.000,4908.0680,N,12236.6040,W,1,8,0.96,29.9,M,-16.6,M,,*5E
$GPGSA,A,3,15,32,10,20,18,24,11,27,,,,,1.27,0.96,0.84*09
$GPRMC,204020.000,A,4908.0680,N,12236.6040,W,34.28,311.44,180920,,,A*49
$GPVTG,311.44,T,,M,34.28,N,63.52,K,A*31
$GPGGA,204021.000,4908.0743,N,12236.6143,W,1,8,1.01,29.6,M,-16.6,M,,*53
$GPGSA,A,3,15,32,10,20,18,24,11,27,,,,,1.83,1.01,1.53*03
$GPGSV,3,1,11,10,83,015,18,21,58,298,13,20,50,076,28,27,47,240,12*7C
$GPGSV,3,2,11,08,40,290,,32,40,189,26,18,22,124,21,24,22,074,17*70
$GPGSV,3,3,11,11,20,310,18,15,08,044,18,36,,,*70
$GPRMC,204021.000,A,4908.0743,N,12236.6143,W,33.52,311.48,180920,,,A*42
$GPVTG,311.48,T,,M,33.52,N,62.11,K,A*31
$GPGGA,204022.000,4908.0800,N,12236.6236,W,1,8,1.01,29.2,M,-16.6,M,,*5D
$GPGSA,A,3,15,32,10,20,18,24,11,27,,,,,1.83,1.01,1.53*03
$GPRMC,204022.000,A,4908.0800,N,12236.6236,W,31.97,311.31,180920,,,A*4D
$GPVTG,311.31,T,,M,31.97,N,59.23,K,A*3D
$GPGGA,204023.000,4908.0853,N,12236.6336,W,1,9,0.99,28.8,M,-16.6,M,,*51
$GPGSA,A,3,21,15,32,10,20,18,24,08,27,,,,1.31,0.99,0.86*08
$GPRMC,204023.000,A,4908.0853,N,12236.6336,W,29.97,310.05,180920,,,A*44
$GPVTG,310.05,T,,M,29.97,N,55.53,K,A*39
$GPGGA,204024.000,4908.0905,N,12236.6430,W,1,9,0.99,28.3,M,-16.6,M,,*5E
$GPGSA,A,3,21,15,32,10,20,18,24,08,27,,,,1.31,0.99,0.86*08
$GPRMC,204024.000,A,4908.0905,N,12236.6430,W,28.68,310.12,180920,,,A*47
$GPVTG,310.12,T,,M,28.68,N,53.14,K,A*3B
$GPGGA,204025.000,4908.0954,N,12236.6519,W,1,8,1.11,28.1,M,-16.6,M,,*53
$GPGSA,A,3,21,15,32,10,20,18,24,27,,,,,1.41,1.11,0.87*07
$GPRMC,204025.000,A,4908.0954,N,12236.6519,W,27.91,310.90,180920,,,A*4B
$GPVTG,310.90,T,,M,27.91,N,51.72,K,A*3A
$GPGGA,204026.000,4908.1004,N,12236.6611,W,1,8,1.11,27.5,M,-16.6,M,,*5D
$GPGSA,A,3,21,15,32,10,20,18,24,27,,,,,1.41,1.11,0.87*07
$GPGSV,3,1,11,10,83,015,18,21,58,298,13,20,49,076,27,27,47,240,14*7D
$GPGSV,3,2,11,08,40,290,,32,40,189,26,24,22,074,17,18,21,124,21*73
$GPGSV,3,3,11,11,20,310,,15,08,044,18,36,,,*79
$GPRMC,204026.000,A,4908.1004,N,12236.6611,W,26.62,310.90,180920,,,A*43
$GPVTG,310.90,T,,M,26.62,N,49.33,K,A*3B
$GPGGA,204027.000,4908.1043,N,12236.6679,W,1,8,1.11,27.4,M,-16.6,M,,*50
$GPGSA,A,3,21,15,32,10,20,18,24,27,,,,,1.41,1.11,0.87*07
$GPRMC,204027.000,A,4908.1043,N,12236.6679,W,24.70,310.87,180920,,,A*48
$GPVTG,310.87,T,,M,24.70,N,45.77,K,A*30
$GPGGA,204028.000,4908.1078,N,12236.6746,W,1,8,1.11,27.3,M,-16.6,M,,*5D
$GPGSA,A,3,21,15,32,10,20,18,24,27,,,,,1.41,1.11,0.87*07
