$GPGGA,220155.997,,,,,0,1,,,M,,M,,*4F
$GPGSA,A,1,,,,,,,,,,,,,,,*1E
$GPRMC,220155.997,V,,,,,0.05,0.00,180920,,,N*4C
$GPVTG,0.00,T,,M,0.05,N,0.09,K,N*3E
$GPGGA,220156.997,,,,,0,1,,,M,,M,,*4C
$GPGSA,A,1,,,,,,,,,,,,,,,*1E
$GPRMC,220156.997,V,,,,,0.03,0.00,180920,,,N*49
$GPVTG,0.00,T,,M,0.03,N,0.06,K,N*37
$GPGGA,220157.997,,,,,0,1,,,M,,M,,*4D
$GPGSA,A,1,,,,,,,,,,,,,,,*1E
$GPRMC,220157.997,V,,,,,0.01,0.00,180920,,,N*4A
$GPVTG,0.00,T,,M,0.01,N,0.02,K,N*31
$GPGGA,220158.997,,,,,0,1,,,M,,M,,*42
$GPGSA,A,1,,,,,,,,,,,,,,,*1E
$GPRMC,220158.997,V,,,,,0.01,0.00,180920,,,N*45
$GPVTG,0.00,T,,M,0.01,N,0.02,K,N*31
$GPGGA,220159.997,,,,,0,1,,,M,,M,,*43
$GPGSA,A,1,,,,,,,,,,,,,,,*1E
$GPGSV,3,1,12,32,78,158,,21,72,209,,10,50,082,,11,46,283,*72
$GPGSV,3,2,12,08,29,246,,01,29,310,,22,18,279,,20,17,096,22*7E
$GPGSV,3,3,12,27,16,213,,24,15,040,,31,09,162,,28,01,330,*7B
$GPRMC,220159.997,V,,,,,0.04,0.00,180920,,,N*41
$GPVTG,0.00,T,,M,0.04,N,0.07,K,N*31
$GPGGA,220200.997,,,,,0,1,,,M,,M,,*4C
$GPGSA,A,1,,,,,,,,,,,,,,,*1E
$GPRMC,220200.997,V,,,,,0.02,0.00,180920,,,N*48
$GPVTG,0.00,T,,M,0.02,N,0.03,K,N*33
$GPGGA,220201.997,,,,,0,1,,,M,,M,,*4D
$GPGSA,A,1,,,,,,,,,,,,,,,*1E
$GPRMC,220201.997,V,,,,,0.01,0.00,180920,,,N*4A
$GPVTG,0.00,T,,M,0.01,N,0.02,K,N*31
$GPGGA,220202.997,,,,,0,1,,,M,,M,,*4E
$GPGSA,A,1,,,,,,,,,,,,,,,*1E
$GPRMC,220202.997,V,,,,,0.02,0.00,180920,,,N*4A
$GPVTG,0.00,T,,M,0.02,N,0.04,K,N*34
$GPGGA,220203.997,,,,,0,1,,,M,,M,,*4F
$GPGSA,A,1,,,,,,,,,,,,,,,*1E
$GPRMC,220203.997,V,,,,,0.01,0.00,180920,,,N*48
$GPVTG,0.00,T,,M,0.01,N,0.02,K,N*31
$GPGGA,220204.997,,,,,0,1,,,M,,M,,*48
$GPGSA,A,1,,,,,,,,,,,,,,,*1E
$GPGSV,3,1,12,32,78,158,,21,72,209,,10,50,082,,11,46,283,*72
$GPGSV,3,2,12,08,29,246,,01,29,310,,22,18,279,,20,17,096,22*7E
$GPGSV,3,3,12,27,16,213,,24,15,040,,31,09,162,,28,01,330,*7B
$GPRMC,220204.997,V,,,,,0.05,0.00,180920,,,N*4B
$GPVTG,0.00,T,,M,0.05,N,0.09,K,N*3E
$GPGGA,220205.997,,,,,0,1,,,M,,M,,*49
$GPGSA,A,1,,,,,,,,,,,,,,,*1E
$GPRMC,220205.997,V,,,,,0.03,0.00,180920,,,N*4C
$GPVTG,0.00,T,,M,0.03,N,0.05,K,N*34
$GPGGA,220206.997,,,,,0,1,,,M,,M,,*4A
$GPGSA,A,1,,,,,,,,,,,,,,,*1E
$GPRMC,220206.997,V,,,,,0.02,0.00,180920,,,N*4E
$GPVTG,0.00,T,,M,0.02,N,0.03,K,N*33
$GPGGA,220207.997,,,,,0,1,,,M,,M,,*4B
$GPGSA,A,1,,,,,,,,,,,,,,,*1E
$GPRMC,220207.997,V,,,,,0.03,0.00,180920,,,N*4E
$GPVTG,0.00,T,,M,0.03,N,0.06,K,N*37
$GPGGA,220208.997,,,,,0,1,,,M,,M,,*44
$GPGSA,A,1,,,,,,,,,,,,,,,*1E
$GPRMC,220208.997,V,,,,,0.03,0.00,180920,,,N*41
$GPVTG,0.00,T,,M,0.03,N,0.05,K,N*34
$GPGGA,220209.997,,,,,0,1,,,M,,M,,*45
$GPGSA,A,1,,,,,,,,,,,,,,,*1E
$GPGSV,3,1,12,32,78,158,,21,72,209,,10,50,082,,11,46,283,*72
$GPGSV,3,2,12,08,29,246,,01,29,310,,22,18,279,,20,17,096,24*78
$GPGSV,3,3,12,27,16,213,,24,15,040,,31,09,162,,28,01,330,*7B
$GPRMC,220209.997,V,,,,,0.03,0.00,180920,,,N*40
$GPVTG,0.00,T,,M,0.03,N,0.05,K,N*34
$GPGGA,220210.997,,,,,0,1,,,M,,M,,*4D
$GPGSA,A,1,,,,,,,,,,,,,,,*1E
$GPRMC,220210.997,V,,,,,0.05,0.00,180920,,,N*4E
$GPVTG,0.00,T,,M,0.05,N,0.09,K,N*3E
$GPGGA,220211.997,,,,,0,1,,,M,,M,,*4C
$GPGSA,A,1,,,,,,,,,,,,,,,*1E
$GPRMC,220211.997,V,,,,,0.01,0.00,180920,,,N*4B
$GPVTG,0.00,T,,M,0.01,N,0.03,K,N*30
$GPGGA,220212.997,,,,,0,1,,,M,,M,,*4F
$GPGSA,A,1,,,,,,,,,,,,,,,*1E
$GPRMC,220212.997,V,,,,,0.04,0.00,180920,,,N*4D
$GPVTG,0.00,T,,M,0.04,N,0.08,K,N*3E
$GPGGA,220213.989,,,,,0,1,,,M,,M,,*41
$GPGSA,A,1,,,,,,,,,,,,,,,*1E
$GPRMC,220213.989,V,,,,,0.02,0.00,180920,,,N*45
$GPVTG,0.00,T,,M,0.02,N,0.03,K,N*33
$GPGGA,220214.989,,,,,0,1,,,M,,M,,*46
$GPGSA,A,1,,,,,,,,,,,,,,,*1E
$GPGSV,3,1,12,32,78,157,,21,72,209,,10,50,082,,11,46,283,*7D
$GPGSV,3,2,12,08,29,246,,01,29,310,,22,18,279,,20,17,096,24*78
$GPGSV,3,3,12,27,16,213,,24,15,040,,31,09,162,,28,01,330,*7B
$GPRMC,220214.989,V,,,,,0.01,0.00,180920,,,N*41
$GPVTG,0.00,T,,M,0.01,N,0.02,K,N*31
$GPGGA,220215.989,,,,,0,1,,,M,,M,,*47
$GPGSA,A,1,,,,,,,,,,,,,,,*1E
$GPRMC,220215.989,V,,,,,0.04,0.00,180920,,,N*45
$GPVTG,0.00,T,,M,0.04,N,0.08,K,N*3E
$GPGGA,220216.989,,,,,0,1,,,M,,M,,*44
$GPGSA,A,1,,,,,,,,,,,,,,,*1E
$GPRMC,220216.989,V,,,,,0.05,0.00,180920,,,N*47
$GPVTG,0.00,T,,M,0.05,N,0.09,K,N*3E
$GPGGA,220217.989,,,,,0,1,,,M,,M,,*45
$GPGSA,A,1,,,,,,,,,,,,,,,*1E
$GPRMC,220217.989,V,,,,,0.05,0.00,180920,,,N*46
$GPVTG,0.00,T,,M,0.05,N,0.10,K,N*36
$GPGGA,220218.989,,,,,0,1,,,M,,M,,*4A
$GPGSA,A,1,,,,,,,,,,,,,,,*1E
$GPRMC,220218.989,V,,,,,0.02,0.00,180920,,,N*4E
$GPVTG,0.00,T,,M,0.02,N,0.04,K,N*34
$GPGGA,220219.989,,,,,0,1,,,M,,M,,*4B
$GPGSA,A,1,,,,,,,,,,,,,,,*1E
$GPGSV,3,1,12,32,78,157,,21,72,209,,10,50,082,,11,46,283,*7D
$GPGSV,3,2,12,08,29,246,,01,29,310,,22,18,279,,20,17,096,22*7E
$GPGSV,3,3,12,27,16,213,,24,15,040,,31,09,162,,28,01,330,*7B
$GPRMC,220219.989,V,,,,,0.01,0.00,180920,,,N*4C
$GPVTG,0.00,T,,M,0.01,N,0.02,K,N*31
$GPGGA,220220.989,,,,,0,2,,,M,,M,,*42
$GPGSA,A,1,,,,,,,,,,,,,,,*1E
$GPRMC,220220.989,V,,,,,0.38,0.00,180920,,,N*4C
$GPVTG,0.00,T,,M,0.38,N,0.70,K,N*3E
$GPGGA,220221.989,,,,,0,2,,,M,,M,,*43
$GPGSA,A,1,,,,,,,,,,,,,,,*1E
$GPRMC,220221.989,V,,,,,0.18,0.00,180920,,,N*4F
$GPVTG,0.00,T,,M,0.18,N,0.34,K,N*3C
$GPGGA,220222.989,,,,,0,2,,,M,,M,,*40
$GPGSA,A,1,,,,,,,,,,,,,,,*1E
$GPRMC,220222.989,V,,,,,0.07,0.00,180920,,,N*42
$GPVTG,0.00,T,,M,0.07,N,0.13,K,N*37
$GPGGA,220223.989,,,,,0,3,,,M,,M,,*40
$GPGSA,A,1,,,,,,,,,,,,,,,*1E
$GPRMC,220223.989,V,,,,,0.54,0.00,180920,,,N*45
$GPVTG,0.00,T,,M,0.54,N,1.01,K,N*33
$GPGGA,220224.989,,,,,0,3,,,M,,M,,*47
$GPGSA,A,1,,,,,,,,,,,,,,,*1E
$GPGSV,3,1,12,32,78,157,,21,72,209,,10,50,082,30,11,46,283,*7E
$GPGSV,3,2,12,08,29,246,,01,29,310,,22,18,279,,20,17,096,23*7F
$GPGSV,3,3,12,27,16,213,,24,15,040,23,31,09,162,,28,01,330,*7A
$GPRMC,220224.989,V,,,,,0.76,337.47,180920,,,N*46
$GPVTG,337.47,T,,M,0.76,N,1.41,K,N*33
$GPGGA,220225.989,,,,,0,3,,,M,,M,,*46
$GPGSA,A,1,,,,,,,,,,,,,,,*1E
$GPRMC,220225.989,V,,,,,0.69,314.97,180920,,,N*45
$GPVTG,314.97,T,,M,0.69,N,1.29,K,N*3F
$GPGGA,220226.989,,,,,0,3,,,M,,M,,*45
$GPGSA,A,1,,,,,,,,,,,,,,,*1E
$GPRMC,220226.989,V,,,,,0.31,314.97,180920,,,N*4B
$GPVTG,314.97,T,,M,0.31,N,0.57,K,N*3A
$GPGGA,220227.989,,,,,0,3,,,M,,M,,*44
$GPGSA,A,1,,,,,,,,,,,,,,,*1E
$GPRMC,220227.989,V,,,,,1.10,297.44,180920,,,N*4C
$GPVTG,297.44,T,,M,1.10,N,2.03,K,N*3F
$GPGGA,220228.989,,,,,0,3,,,M,,M,,*4B
$GPGSA,A,1,,,,,,,,,,,,,,,*1E
$GPRMC,220228.989,V,,,,,8.00,286.10,180920,,,N*4A
$GPVTG,286.10,T,,M,8.00,N,14.82,K,N*08
$GPGGA,220229.989,,,,,0,4,,,M,,M,,*4D
$GPGSA,A,1,,,,,,,,,,,,,,,*1E
$GPGSV,3,1,12,32,78,157,19,21,72,209,,10,50,082,17,11,47,282,*73
$GPGSV,3,2,12,08,29,246,,01,29,310,,22,18,279,,20,17,096,22*7E
$GPGSV,3,3,12,27,16,213,,24,15,040,19,31,09,162,,28,01,330,*73
$GPRMC,220229.989,V,,,,,8.28,307.69,180920,,,N*47
$GPVTG,307.69,T,,M,8.28,N,15.35,K,N*09
$GPGGA,220230.989,,,,,0,3,,,M,,M,,*42
$GPGSA,A,1,,,,,,,,,,,,,,,*1E
$GPRMC,220230.989,V,,,,,8.23,306.30,180920,,,N*49
$GPVTG,306.30,T,,M,8.23,N,15.26,K,N*0D
$GPGGA,220231.989,,,,,0,3,,,M,,M,,*43
$GPGSA,A,1,,,,,,,,,,,,,,,*1E
$GPRMC,220231.989,V,,,,,8.80,290.78,180920,,,N*43
$GPVTG,290.78,T,,M,8.80,N,16.31,K,N*03
$GPGGA,220232.989,,,,,0,3,,,M,,M,,*40
$GPGSA,A,1,,,,,,,,,,,,,,,*1E
$GPRMC,220232.989,V,,,,,7.04,263.81,180920,,,N*49
$GPVTG,263.81,T,,M,7.04,N,13.05,K,N*08
$GPGGA,220234.000,,,,,0,3,,,M,,M,,*4E
$GPGSA,A,1,,,,,,,,,,,,,,,*1E
$GPRMC,220234.000,V,,,,,4.85,287.85,180920,,,N*43
$GPVTG,287.85,T,,M,4.85,N,8.98,K,N*32
$GPGGA,220235.000,,,,,0,3,,,M,,M,,*4F
$GPGSA,A,1,,,,,,,,,,,,,,,*1E
$GPGSV,3,1,12,32,78,157,20,21,72,209,,10,50,082,18,11,47,282,*76
$GPGSV,3,2,12,08,29,246,,01,29,310,,22,18,279,,20,17,096,25*79
$GPGSV,3,3,12,27,16,213,,24,15,040,22,31,09,162,,28,01,330,*7B
$GPRMC,220235.000,V,,,,,7.92,270.50,180920,,,N*47
$GPVTG,270.50,T,,M,7.92,N,14.68,K,N*05
$GPGGA,220236.000,,,,,0,3,,,M,,M,,*4C
$GPGSA,A,1,,,,,,,,,,,,,,,*1E
$GPRMC,220236.000,V,,,,,15.38,206.53,180920,,,N*75
$GPVTG,206.53,T,,M,15.38,N,28.50,K,N*30
$GPGGA,220237.000,,,,,0,2,,,M,,M,,*4C
$GPGSA,A,1,,,,,,,,,,,,,,,*1E
$GPRMC,220237.000,V,,,,,15.38,206.54,180920,,,N*73
$GPVTG,206.54,T,,M,15.38,N,28.49,K,N*3F
$GPGGA,220238.000,,,,,0,2,,,M,,M,,*43
$GPGSA,A,1,,,,,,,,,,,,,,,*1E
$GPRMC,220238.000,V,,,,,15.37,206.54,180920,,,N*73
$GPVTG,206.54,T,,M,15.37,N,28.49,K,N*30
$GPGGA,220239.000,,,,,0,2,,,M,,M,,*42
$GPGSA,A,1,,,,,,,,,,,,,,,*1E
$GPRMC,220239.000,V,,,,,15.37,206.54,180920,,,N*72
$GPVTG,206.54,T,,M,15.37,N,28.49,K,N*30
$GPGGA,220240.000,,,,,0,3,,,M,,M,,*4D
$GPGSA,A,1,,,,,,,,,,,,,,,*1E
$GPGSV,3,1,12,32,78,157,20,21,72,208,,10,50,082,30,11,47,282,*7D
$GPGSV,3,2,12,08,29,246,,01,29,310,15,22,18,279,,20,17,096,*7A
$GPGSV,3,3,12,27,16,213,,24,15,039,19,31,09,162,,28,01,330,*7D
$GPRMC,220240.000,V,,,,,2.00,309.72,180920,,,N*44
$GPVTG,309.72,T,,M,2.00,N,3.71,K,N*3A
$GPGGA,220241.000,,,,,0,3,,,M,,M,,*4C
$GPGSA,A,1,,,,,,,,,,,,,,,*1E
$GPRMC,220241.000,V,,,,,3.43,206.37,180920,,,N*4C
$GPVTG,206.37,T,,M,3.43,N,6.36,K,N*35
$GPGGA,220242.000,,,,,0,3,,,M,,M,,*4F
$GPGSA,A,1,,,,,,,,,,,,,,,*1E
$GPRMC,220242.000,V,,,,,2.49,237.58,180920,,,N*4F
$GPVTG,237.58,T,,M,2.49,N,4.61,K,N*35
$GPGGA,220243.000,,,,,0,4,,,M,,M,,*49
$GPGSA,A,1,,,,,,,,,,,,,,,*1E
$GPRMC,220243.000,V,,,,,7.18,1.14,180920,,,N*40
$GPVTG,1.14,T,,M,7.18,N,13.31,K,N*08
$GPGGA,220244.000,,,,,0,4,,,M,,M,,*4E
$GPGSA,A,1,,,,,,,,,,,,,,,*1E
$GPRMC,220244.000,V,,,,,6.81,218.32,180920,,,N*48
$GPVTG,218.32,T,,M,6.81,N,12.61,K,N*03
$GPGGA,220245.000,,,,,0,4,,,M,,M,,*4F
$GPGSA,A,1,,,,,,,,,,,,,,,*1E
$GPGSV,3,1,11,32,78,157,19,21,72,208,,10,50,082,27,11,47,282,*72
$GPGSV,3,2,11,08,29,246,,01,29,310,19,22,18,279,,20,17,096,*75
$GPGSV,3,3,11,27,16,212,,24,15,039,15,31,09,162,*48
$GPRMC,220245.000,V,,,,,18.19,203.31,180920,,,N*7E
$GPVTG,203.31,T,,M,18.19,N,33.70,K,N*37
$GPGGA,220246.000,,,,,0,5,,,M,,M,,*4D
$GPGSA,A,1,,,,,,,,,,,,,,,*1E
$GPRMC,220246.000,V,,,,,30.74,188.69,180920,,,N*71
$GPVTG,188.69,T,,M,30.74,N,56.96,K,N*30
$GPGGA,220247.000,,,,,0,5,,,M,,M,,*4C
$GPGSA,A,1,,,,,,,,,,,,,,,*1E
$GPRMC,220247.000,V,,,,,27.73,191.52,180920,,,N*71
$GPVTG,191.52,T,,M,27.73,N,51.39,K,N*33
$GPGGA,220248.000,,,,,0,5,,,M,,M,,*43
$GPGSA,A,1,,,,,,,,,,,,,,,*1E
$GPRMC,220248.000,V,,,,,35.11,187.21,180920,,,N*7A
$GPVTG,187.21,T,,M,35.11,N,65.05,K,N*3F
$GPGGA,220249.000,,,,,0,5,,,M,,M,,*42
$GPGSA,A,1,,,,,,,,,,,,,,,*1E
$GPRMC,220249.000,V,,,,,12.89,194.53,180920,,,N*78
$GPVTG,194.53,T,,M,12.89,N,23.89,K,N*3A
$GPGGA,220250.000,,,,,0,5,,,M,,M,,*4A
$GPGSA,A,1,,,,,,,,,,,,,,,*1E
$GPGSV,3,1,11,32,79,156,20,21,72,208,,10,50,082,27,11,47,282,35*7E
$GPGSV,3,2,11,08,29,246,,01,29,310,28,22,18,279,,20,17,096,*77
$GPGSV,3,3,11,27,16,212,,24,15,039,14,31,10,162,*41
$GPRMC,220250.000,V,,,,,23.47,184.69,180920,,,N*78
$GPVTG,184.69,T,,M,23.47,N,43.49,K,N*38
$GPGGA,220251.000,,,,,0,5,,,M,,M,,*4B
$GPGSA,A,1,,,,,,,,,,,,,,,*1E
$GPRMC,220251.000,V,,,,,27.64,182.76,180920,,,N*74
$GPVTG,182.76,T,,M,27.64,N,51.21,K,N*38
$GPGGA,220252.000,,,,,0,4,,,M,,M,,*49
$GPGSA,A,1,,,,,,,,,,,,,,,*1E
$GPRMC,220252.000,V,,,,,37.03,182.22,180920,,,N*76
$GPVTG,182.22,T,,M,37.03,N,68.62,K,N*34
$GPGGA,220253.000,,,,,0,5,,,M,,M,,*49
$GPGSA,A,1,,,,,,,,,,,,,,,*1E
$GPRMC,220253.000,V,,,,,29.93,179.49,180920,,,N*78
$GPVTG,179.49,T,,M,29.93,N,55.46,K,N*33
$GPGGA,220254.000,,,,,0,5,,,M,,M,,*4E
$GPGSA,A,1,,,,,,,,,,,,,,,*1E
$GPRMC,220254.000,V,,,,,31.46,177.75,180920,,,N*7F
$GPVTG,177.75,T,,M,31.46,N,58.29,K,N*37
$GPGGA,220255.000,,,,,0,5,,,M,,M,,*4F
$GPGSA,A,1,,,,,,,,,,,,,,,*1E
$GPGSV,3,1,12,32,79,156,20,21,72,208,,10,50,082,17,11,47,282,30*7B
$GPGSV,3,2,12,46,33,188,,01,30,310,25,08,29,246,,22,18,279,18*70
$GPGSV,3,3,12,20,17,096,,27,16,212,,24,15,039,16,31,10,162,*7B
$GPRMC,220255.000,V,,,,,24.40,175.40,180920,,,N*78
$GPVTG,175.40,T,,M,24.40,N,45.22,K,N*36
$GPGGA,220256.000,4910.1932,N,12257.3842,W,1,6,1.13,-14.5,M,-16.8,M,,*7E
$GPGSA,A,3,24,32,27,10,11,01,,,,,,,1.41,1.13,0.84*0B
$GPRMC,220256.000,A,4910.1932,N,12257.3842,W,6.22,159.61,180920,,,A*78
$GPVTG,159.61,T,,M,6.22,N,11.52,K,A*06
$GPGGA,220257.000,4910.1911,N,12257.3784,W,1,7,1.09,-2.0,M,-16.8,M,,*43
$GPGSA,A,3,24,32,08,27,10,11,01,,,,,,1.38,1.09,0.84*06
$GPRMC,220257.000,A,4910.1911,N,12257.3784,W,5.91,155.31,180920,,,A*7F
$GPVTG,155.31,T,,M,5.91,N,10.95,K,A*0E
$GPGGA,220258.000,4910.1897,N,12257.3780,W,1,6,1.14,-9.3,M,-16.8,M,,*42
$GPGSA,A,3,24,32,27,10,11,01,,,,,,,1.92,1.14,1.55*0F
$GPRMC,220258.000,A,4910.1897,N,12257.3780,W,6.59,156.22,180920,,,A*7D
$GPVTG,156.22,T,,M,6.59,N,12.22,K,A*06
$GPGGA,220259.000,4910.1860,N,12257.3752,W,1,8,1.09,-14.6,M,-16.8,M,,*7F
$GPGSA,A,3,24,32,21,27,10,11,01,08,,,,,1.75,1.09,1.37*05
$GPRMC,220259.000,A,4910.1860,N,12257.3752,W,8.50,158.53,180920,,,A*74
$GPVTG,158.53,T,,M,8.50,N,15.76,K,A*0F
$GPGGA,220300.000,4910.1817,N,12257.3727,W,1,8,1.09,-10.4,M,-16.8,M,,*76
$GPGSA,A,3,24,32,21,27,10,11,01,08,,,,,1.75,1.09,1.37*05
$GPGSV,3,1,12,32,79,156,17,21,72,208,21,10,50,082,16,11,47,282,28*74
$GPGSV,3,2,12,44,33,172,,01,30,310,20,08,29,245,29,22,18,279,18*7A
$GPGSV,3,3,12,20,17,096,,27,16,212,28,24,15,039,16,31,10,162,*71
$GPRMC,220300.000,A,4910.1817,N,12257.3727,W,8.95,156.27,180920,,,A*7F
$GPVTG,156.27,T,,M,8.95,N,16.58,K,A*04
$GPGGA,220301.000,4910.1798,N,12257.3697,W,1,7,1.10,-24.7,M,-16.8,M,,*76
$GPGSA,A,3,24,32,27,10,11,01,08,,,,,,1.89,1.10,1.54*08
$GPRMC,220301.000,A,4910.1798,N,12257.3697,W,6.92,155.17,180920,,,A*75
$GPVTG,155.17,T,,M,6.92,N,12.82,K,A*0E
$GPGGA,220302.000,4910.1813,N,12257.3812,W,1,7,1.10,-5.6,M,-16.8,M,,*48
$GPGSA,A,3,24,32,27,10,11,01,08,,,,,,1.89,1.10,1.54*08
$GPRMC,220302.000,A,4910.1813,N,12257.3812,W,6.19,147.68,180920,,,A*71
$GPVTG,147.68,T,,M,6.19,N,11.46,K,A*0D
$GPGGA,220303.000,4910.1804,N,12257.3801,W,1,7,1.10,-6.1,M,-16.8,M,,*49
$GPGSA,A,3,24,32,27,10,11,01,08,,,,,,1.89,1.10,1.54*08
$GPRMC,220303.000,A,4910.1804,N,12257.3801,W,5.81,146.45,180920,,,A*78
$GPVTG,146.45,T,,M,5.81,N,10.77,K,A*02
$GPGGA,220304.000,4910.1793,N,12257.3793,W,1,8,0.91,-6.6,M,-16.8,M,,*4B
$GPGSA,A,3,24,32,27,10,11,01,31,08,,,,,1.64,0.91,1.37*04
$GPRMC,220304.000,A,4910.1793,N,12257.3793,W,5.42,147.07,180920,,,A*72
$GPVTG,147.07,T,,M,5.42,N,10.05,K,A*0F
$GPGGA,220305.000,4910.1746,N,12257.3720,W,1,8,0.90,-9.9,M,-16.8,M,,*4B
$GPGSA,A,2,24,32,27,10,11,01,31,08,,,,,1.21,0.90,0.81*09
$GPGSV,3,1,12,32,79,156,18,21,72,208,,10,50,082,18,11,47,282,22*7C
$GPGSV,3,2,12,44,33,172,,01,30,310,26,08,29,245,27,22,18,279,18*72
$GPGSV,3,3,12,20,17,096,,27,16,212,27,24,15,039,15,31,10,162,25*7A
$GPRMC,220305.000,A,4910.1746,N,12257.3720,W,0.06,147.07,180920,,,A*76
$GPVTG,147.07,T,,M,0.06,N,0.10,K,A*3F
$GPGGA,220306.000,4910.1768,N,12257.3721,W,1,9,0.90,-2.5,M,-16.8,M,,*43
$GPGSA,A,3,24,32,21,27,10,11,01,31,08,,,,1.18,0.90,0.76*09
$GPRMC,220306.000,A,4910.1768,N,12257.3721,W,0.08,147.07,180920,,,A*76
$GPVTG,147.07,T,,M,0.08,N,0.15,K,A*34
$GPGGA,220307.000,4910.1758,N,12257.3722,W,1,8,0.95,-10.2,M,-16.8,M,,*72
$GPGSA,A,3,24,32,21,27,10,01,31,08,,,,,1.22,0.95,0.77*04
$GPRMC,220307.000,A,4910.1758,N,12257.3722,W,0.06,147.07,180920,,,A*79
$GPVTG,147.07,T,,M,0.06,N,0.12,K,A*3D
$GPGGA,220308.000,4910.1757,N,12257.3725,W,1,8,0.95,-14.5,M,-16.8,M,,*76
$GPGSA,A,3,24,32,21,27,10,01,31,08,,,,,1.22,0.95,0.77*04
$GPRMC,220308.000,A,4910.1757,N,12257.3725,W,0.07,147.07,180920,,,A*7F
$GPVTG,147.07,T,,M,0.07,N,0.13,K,A*3D
$GPGGA,220309.000,4910.1754,N,12257.3725,W,1,8,0.95,-15.2,M,-16.8,M,,*72
$GPGSA,A,3,24,32,21,27,10,01,31,08,,,,,1.22,0.95,0.77*04
$GPRMC,220309.000,A,4910.1754,N,12257.3725,W,0.07,147.07,180920,,,A*7D
$GPVTG,147.07,T,,M,0.07,N,0.13,K,A*3D
$GPGGA,220310.000,4910.1756,N,12257.3721,W,1,7,1.16,-13.2,M,-16.8,M,,*7F
$GPGSA,A,3,24,32,21,27,10,01,08,,,,,,1.42,1.16,0.82*00
$GPGSV,3,1,12,32,79,156,18,21,72,208,20,10,50,082,18,11,47,282,*7E
$GPGSV,3,2,12,48,32,193,,01,30,310,27,08,29,245,28,22,18,279,18*7E
$GPGSV,3,3,12,20,17,096,,27,16,212,28,24,15,039,13,31,10,162,*74
$GPRMC,220310.000,A,4910.1756,N,12257.3721,W,0.05,147.07,180920,,,A*71
$GPVTG,147.07,T,,M,0.05,N,0.10,K,A*3C
$GPGGA,220311.000,4910.1758,N,12257.3712,W,1,7,1.16,-9.7,M,-16.8,M,,*4E
$GPGSA,A,3,24,32,21,27,10,01,08,,,,,,1.42,1.16,0.82*00
$GPRMC,220311.000,A,4910.1758,N,12257.3712,W,0.03,147.07,180920,,,A*78
$GPVTG,147.07,T,,M,0.03,N,0.06,K,A*3D
$GPGGA,220312.000,4910.1757,N,12257.3713,W,1,7,1.16,-8.5,M,-16.8,M,,*40
$GPGSA,A,3,24,32,21,27,10,01,08,,,,,,1.42,1.16,0.82*00
$GPRMC,220312.000,A,4910.1757,N,12257.3713,W,0.01,147.07,180920,,,A*77
$GPVTG,147.07,T,,M,0.01,N,0.01,K,A*38
$GPGGA,220313.000,4910.1756,N,12257.3711,W,1,8,0.95,-8.1,M,-16.8,M,,*43
$GPGSA,A,3,24,32,21,27,10,01,31,08,,,,,1.22,0.95,0.77*04
$GPRMC,220313.000,A,4910.1756,N,12257.3711,W,0.01,147.07,180920,,,A*75
$GPVTG,147.07,T,,M,0.01,N,0.02,K,A*3B
$GPGGA,220314.000,4910.1757,N,12257.3711,W,1,8,0.95,-7.8,M,-16.8,M,,*43
$GPGSA,A,3,24,32,21,27,10,01,31,08,,,,,1.22,0.95,0.77*04
$GPRMC,220314.000,A,4910.1757,N,12257.3711,W,0.01,147.07,180920,,,A*73
$GPVTG,147.07,T,,M,0.01,N,0.02,K,A*3B
$GPGGA,220315.000,4910.1758,N,12257.3706,W,1,8,0.95,-7.4,M,-16.8,M,,*47
$GPGSA,A,3,24,32,21,27,10,01,31,08,,,,,1.22,0.95,0.77*04
$GPGSV,3,1,12,32,79,156,17,21,71,208,21,10,50,082,18,11,47,282,*73
$GPGSV,3,2,12,48,32,193,,01,30,310,27,08,29,245,30,22,19,279,17*79
$GPGSV,3,3,12,20,17,096,,27,16,212,26,24,15,039,16,31,10,162,17*79
$GPRMC,220315.000,A,4910.1758,N,12257.3706,W,0.01,147.07,180920,,,A*7B
$GPVTG,147.07,T,,M,0.01,N,0.02,K,A*3B
$GPGGA,220316.000,4910.1756,N,12257.3697,W,1,8,0.95,-8.2,M,-16.8,M,,*4A
$GPGSA,A,3,24,32,21,27,10,01,31,08,,,,,1.22,0.95,0.77*04
$GPRMC,220316.000,A,4910.1756,N,12257.3697,W,0.02,147.07,180920,,,A*7C
$GPVTG,147.07,T,,M,0.02,N,0.04,K,A*3E
$GPGGA,220317.000,4910.1751,N,12257.3705,W,1,8,0.95,-8.8,M,-16.8,M,,*4C
$GPGSA,A,3,24,32,21,27,10,01,31,08,,,,,1.22,0.95,0.77*04
$GPRMC,220317.000,A,4910.1751,N,12257.3705,W,0.02,147.07,180920,,,A*70
$GPVTG,147.07,T,,M,0.02,N,0.03,K,A*39
$GPGGA,220318.000,4910.1750,N,12257.3704,W,1,8,0.95,-8.8,M,-16.8,M,,*43
$GPGSA,A,3,24,32,21,27,10,01,31,08,,,,,1.22,0.95,0.77*04
$GPRMC,220318.000,A,4910.1750,N,12257.3704,W,0.01,147.07,180920,,,A*7C
$GPVTG,147.07,T,,M,0.01,N,0.02,K,A*3B
$GPGGA,220319.000,4910.1750,N,12257.3705,W,1,8,0.95,-8.8,M,-16.8,M,,*43
$GPGSA,A,3,24,32,21,27,10,01,31,08,,,,,1.22,0.95,0.77*04
$GPRMC,220319.000,A,4910.1750,N,12257.3705,W,0.00,147.07,180920,,,A*7D
$GPVTG,147.07,T,,M,0.00,N,0.00,K,A*38
$GPGGA,220320.000,4910.1750,N,12257.3705,W,1,8,0.95,-8.8,M,-16.8,M,,*49
$GPGSA,A,3,24,32,21,27,10,01,31,08,,,,,1.53,0.95,1.20*01
$GPGSV,3,1,12,32,79,156,17,21,71,208,22,10,50,082,19,11,47,282,*71
$GPGSV,3,2,12,51,31,159,,01,30,310,28,08,29,245,30,22,19,279,18*74
$GPGSV,3,3,12,20,17,096,,27,15,212,27,24,15,039,16,31,10,162,21*7E
$GPRMC,220320.000,A,4910.1750,N,12257.3705,W,0.00,147.07,180920,,,A*77
$GPVTG,147.07,T,,M,0.00,N,0.00,K,A*38
$GPGGA,220321.000,4910.1750,N,12257.3705,W,1,9,0.90,-8.8,M,-16.8,M,,*4C
$GPGSA,A,3,24,32,21,27,10,11,01,31,08,,,,1.18,0.90,0.76*09
$GPRMC,220321.000,A,4910.1750,N,12257.3705,W,0.00,147.07,180920,,,A*76
$GPVTG,147.07,T,,M,0.00,N,0.00,K,A*38
$GPGGA,220322.000,4910.1750,N,12257.3705,W,1,8,0.95,-8.8,M,-16.8,M,,*4B
$GPGSA,A,3,24,32,21,27,10,01,31,08,,,,,1.53,0.95,1.20*01
$GPRMC,220322.000,A,4910.1750,N,12257.3705,W,0.00,147.07,180920,,,A*75
$GPVTG,147.07,T,,M,0.00,N,0.00,K,A*38
$GPGGA,220323.000,4910.1749,N,12257.3705,W,1,9,0.90,-8.7,M,-16.8,M,,*49
$GPGSA,A,3,24,32,21,27,10,11,01,31,08,,,,1.18,0.90,0.76*09
$GPRMC,220323.000,A,4910.1749,N,12257.3705,W,0.04,147.07,180920,,,A*78
$GPVTG,147.07,T,,M,0.04,N,0.07,K,A*3B
$GPGGA,220324.000,4910.1748,N,12257.3704,W,1,8,0.95,-8.7,M,-16.8,M,,*4A
$GPGSA,A,3,24,32,21,27,10,01,31,08,,,,,1.22,0.95,0.77*04
$GPRMC,220324.000,A,4910.1748,N,12257.3704,W,0.00,147.07,180920,,,A*7B
$GPVTG,147.07,T,,M,0.00,N,0.00,K,A*38
$GPGGA,220325.000,4910.1748,N,12257.3704,W,1,8,0.95,-8.7,M,-16.8,M,,*4B
$GPGSA,A,3,24,32,21,27,10,01,31,08,,,,,1.53,0.95,1.20*01
$GPGSV,3,1,12,32,79,155,15,21,71,208,22,10,50,082,20,11,47,282,*7A
$GPGSV,3,2,12,51,31,159,,01,30,310,31,08,29,245,32,22,19,279,28*7D
$GPGSV,3,3,12,20,17,096,,27,15,212,27,24,15,039,16,31,10,162,27*78
$GPRMC,220325.000,A,4910.1748,N,12257.3704,W,0.00,147.07,180920,,,A*7A
$GPVTG,147.07,T,,M,0.00,N,0.00,K,A*38
$GPGGA,220326.000,4910.1746,N,12257.3702,W,1,9,0.90,-8.7,M,-16.8,M,,*44
$GPGSA,A,3,24,32,21,27,10,11,01,31,08,,,,1.18,0.90,0.76*09
$GPRMC,220326.000,A,4910.1746,N,12257.3702,W,0.00,147.07,180920,,,A*71
$GPVTG,147.07,T,,M,0.00,N,0.00,K,A*38
$GPGGA,220327.000,4910.1746,N,12257.3702,W,1,9,0.90,-8.7,M,-16.8,M,,*45
$GPGSA,A,3,24,32,21,27,10,11,01,31,08,,,,1.49,0.90,1.18*04
$GPRMC,220327.000,A,4910.1746,N,12257.3702,W,0.00,147.07,180920,,,A*70
$GPVTG,147.07,T,,M,0.00,N,0.00,K,A*38
$GPGGA,220328.000,4910.1746,N,12257.3702,W,1,9,0.90,-8.7,M,-16.8,M,,*4A
$GPGSA,A,3,24,32,21,27,10,11,01,31,08,,,,1.49,0.90,1.18*04
$GPRMC,220328.000,A,4910.1746,N,12257.3702,W,0.00,147.07,180920,,,A*7F
$GPVTG,147.07,T,,M,0.00,N,0.00,K,A*38
$GPGGA,220329.000,4910.1746,N,12257.3701,W,1,8,1.08,-8.7,M,-16.8,M,,*49
$GPGSA,A,3,24,32,21,27,10,11,01,08,,,,,1.34,1.08,0.81*0D
$GPRMC,220329.000,A,4910.1746,N,12257.3701,W,0.30,147.07,180920,,,A*7E
$GPVTG,147.07,T,,M,0.30,N,0.55,K,A*3B
$GPGGA,220330.000,4910.1745,N,12257.3702,W,1,8,1.08,-8.7,M,-16.8,M,,*41
$GPGSA,A,3,24,32,21,27,10,11,01,08,,,,,1.34,1.08,0.81*0D
$GPGSV,3,1,12,32,79,155,18,21,71,208,16,10,50,082,22,11,47,282,29*79
$GPGSV,3,2,12,46,33,188,,01,30,310,23,08,29,245,21,22,19,279,21*7D
$GPGSV,3,3,12,20,17,096,,27,15,212,22,24,15,039,15,31,10,162,*7B
$GPRMC,220330.000,A,4910.1745,N,12257.3702,W,0.40,147.07,180920,,,A*71
$GPVTG,147.07,T,,M,0.40,N,0.74,K,A*3F
$GPGGA,220331.000,4910.1744,N,12257.3702,W,1,8,1.08,-8.7,M,-16.8,M,,*41
$GPGSA,A,3,24,32,21,27,10,11,01,08,,,,,1.34,1.08,0.81*0D
$GPRMC,220331.000,A,4910.1744,N,12257.3702,W,0.41,147.07,180920,,,A*70
$GPVTG,147.07,T,,M,0.41,N,0.76,K,A*3C
$GPGGA,220332.000,4910.1743,N,12257.3703,W,1,7,1.12,-8.7,M,-16.8,M,,*40
$GPGSA,A,3,24,32,21,27,10,11,01,,,,,,1.38,1.12,0.81*02
$GPRMC,220332.000,A,4910.1743,N,12257.3703,W,0.53,147.07,180920,,,A*76
$GPVTG,147.07,T,,M,0.53,N,0.98,K,A*3F
$GPGGA,220333.000,4910.1742,N,12257.3704,W,1,8,1.07,-8.7,M,-16.8,M,,*4C
$GPGSA,A,3,24,32,21,27,10,11,01,08,,,,,1.34,1.07,0.81*02
$GPRMC,220333.000,A,4910.1742,N,12257.3704,W,0.78,147.07,180920,,,A*78
$GPVTG,147.07,T,,M,0.78,N,1.45,K,A*37
$GPGGA,220334.000,4910.1739,N,12257.3706,W,1,7,1.12,-8.7,M,-16.8,M,,*4E
$GPGSA,A,3,24,32,21,27,10,11,01,,,,,,1.38,1.12,0.81*02
$GPRMC,220334.000,A,4910.1739,N,12257.3706,W,1.17,147.07,180920,,,A*79
$GPVTG,147.07,T,,M,1.17,N,2.17,K,A*3B
$GPGGA,220335.000,4910.1737,N,12257.3709,W,1,7,1.12,-8.7,M,-16.8,M,,*4E
$GPGSA,A,3,24,32,21,27,10,11,01,,,,,,1.38,1.12,0.81*02
$GPGSV,3,1,12,32,79,155,19,21,71,208,15,10,49,082,21,11,47,282,28*71
$GPGSV,3,2,12,46,33,188,,01,30,310,26,08,29,245,,22,19,279,27*7D
$GPGSV,3,3,12,20,17,096,,27,15,212,16,24,15,039,19,31,10,162,*70
$GPRMC,220335.000,A,4910.1737,N,12257.3709,W,1.36,147.07,180920,,,A*7A
$GPVTG,147.07,T,,M,1.36,N,2.53,K,A*38
$GPGGA,220336.000,4910.1733,N,12257.3712,W,1,7,1.12,-8.7,M,-16.8,M,,*43
$GPGSA,A,3,24,32,21,27,10,11,01,,,,,,1.38,1.12,0.81*02
$GPRMC,220336.000,A,4910.1733,N,12257.3712,W,1.60,147.07,180920,,,A*74
$GPVTG,147.07,T,,M,1.60,N,2.97,K,A*33
$GPGGA,220337.000,4910.1730,N,12257.3717,W,1,6,1.22,-8.6,M,-16.8,M,,*47
$GPGSA,A,3,24,32,21,27,10,01,,,,,,,1.47,1.22,0.82*0A
$GPRMC,220337.000,A,4910.1730,N,12257.3717,W,1.97,226.34,180920,,,A*7F
$GPVTG,226.34,T,,M,1.97,N,3.64,K,A*32
$GPGGA,220338.000,4910.1725,N,12257.3739,W,1,5,1.42,-8.6,M,-16.8,M,,*45
$GPGSA,A,3,32,21,27,10,01,,,,,,,,1.69,1.42,0.90*05
$GPRMC,220338.000,A,4910.1725,N,12257.3739,W,2.34,237.09,180920,,,A*7C
$GPVTG,237.09,T,,M,2.34,N,4.33,K,A*33
$GPGGA,220339.000,4910.1720,N,12257.3752,W,1,5,1.42,-8.6,M,-16.8,M,,*4C
$GPGSA,A,3,32,21,27,10,01,,,,,,,,1.69,1.42,0.90*05
$GPRMC,220339.000,A,4910.1720,N,12257.3752,W,2.56,241.68,180920,,,A*77
$GPVTG,241.68,T,,M,2.56,N,4.74,K,A*32
$GPGGA,220340.000,4910.1713,N,12257.3769,W,1,6,1.22,-8.6,M,-16.8,M,,*4F
$GPGSA,A,3,32,21,27,10,20,01,,,,,,,1.47,1.22,0.82*0E
$GPGSV,3,1,12,32,79,155,19,21,71,208,16,10,49,082,31,11,47,281,*7A
$GPGSV,3,2,12,44,33,172,,01,30,310,27,08,29,245,,22,19,279,26*7A
$GPGSV,3,3,12,20,17,096,17,27,15,212,12,24,15,039,,31,10,162,*7A
$GPRMC,220340.000,A,4910.1713,N,12257.3769,W,2.88,243.09,180920,,,A*77
$GPVTG,243.09,T,,M,2.88,N,5.34,K,A*31
$GPGGA,220341.000,4910.1706,N,12257.3783,W,1,6,1.22,-8.4,M,-16.8,M,,*4C
$GPGSA,A,3,32,21,27,10,20,01,,,,,,,1.47,1.22,0.82*0E
$GPRMC,220341.000,A,4910.1706,N,12257.3783,W,3.12,243.32,180920,,,A*7C
$GPVTG,243.32,T,,M,3.12,N,5.79,K,A*32
$GPGGA,220342.000,4910.1697,N,12257.3798,W,1,6,1.22,-8.2,M,-16.8,M,,*4A
$GPGSA,A,3,32,21,27,10,20,01,,,,,,,1.47,1.22,0.82*0E
$GPRMC,220342.000,A,4910.1697,N,12257.3798,W,3.73,241.70,180920,,,A*7F
$GPVTG,241.70,T,,M,3.73,N,6.91,K,A*34
$GPGGA,220343.000,4910.1690,N,12257.3820,W,1,7,1.16,-8.1,M,-16.8,M,,*45
$GPGSA,A,3,32,21,27,10,20,01,11,,,,,,1.42,1.16,0.82*0C
$GPRMC,220343.000,A,4910.1690,N,12257.3820,W,4.78,248.26,180920,,,A*73
$GPVTG,248.26,T,,M,4.78,N,8.86,K,A*3A
$GPGGA,220344.000,4910.1684,N,12257.3842,W,1,6,1.22,-8.0,M,-16.8,M,,*44
$GPGSA,A,3,32,21,27,10,20,01,,,,,,,1.47,1.22,0.82*0E
$GPRMC,220344.000,A,4910.1684,N,12257.3842,W,5.31,251.71,180920,,,A*73
$GPVTG,251.71,T,,M,5.31,N,9.85,K,A*3E
$GPGGA,220345.000,4910.1678,N,12257.3865,W,1,6,1.23,-8.0,M,-16.8,M,,*42
$GPGSA,A,3,32,21,27,10,20,01,,,,,,,1.88,1.23,1.42*01
$GPGSV,3,1,12,32,79,155,21,21,71,208,16,10,49,082,31,11,47,281,*71
$GPGSV,3,2,12,44,33,172,,01,30,310,26,08,29,245,,22,19,279,25*78
$GPGSV,3,3,12,20,16,097,17,27,15,212,14,24,15,039,,31,10,162,*7C
$GPRMC,220345.000,A,4910.1678,N,12257.3865,W,5.94,250.06,180920,,,A*7A
$GPVTG,250.06,T,,M,5.94,N,11.00,K,A*04
$GPGGA,220346.000,4910.1670,N,12257.3890,W,1,6,1.22,-7.9,M,-16.8,M,,*44
$GPGSA,A,3,32,21,27,10,20,01,,,,,,,1.47,1.22,0.82*0E
$GPRMC,220346.000,A,4910.1670,N,12257.3890,W,6.56,249.50,180920,,,A*7D
$GPVTG,249.50,T,,M,6.56,N,12.16,K,A*06
$GPGGA,220347.000,4910.1661,N,12257.3918,W,1,6,1.22,-7.9,M,-16.8,M,,*44
$GPGSA,A,3,32,21,27,10,20,01,,,,,,,1.47,1.22,0.82*0E
$GPRMC,220347.000,A,4910.1661,N,12257.3918,W,7.18,246.92,180920,,,A*77
$GPVTG,246.92,T,,M,7.18,N,13.30,K,A*09
$GPGGA,220348.000,4910.1652,N,12257.3951,W,1,7,1.05,-8.0,M,-16.8,M,,*44
$GPGSA,A,3,32,21,27,10,20,01,24,,,,,,1.31,1.05,0.79*08
$GPRMC,220348.000,A,4910.1652,N,12257.3951,W,7.89,249.12,180920,,,A*7A
$GPVTG,249.12,T,,M,7.89,N,14.62,K,A*06
$GPGGA,220349.000,4910.1631,N,12257.3992,W,1,8,0.99,-7.9,M,-16.8,M,,*42
$GPGSA,A,3,32,21,27,10,11,20,01,24,,,,,1.26,0.99,0.79*0A
$GPRMC,220349.000,A,4910.1631,N,12257.3992,W,9.39,242.79,180920,,,A*72
$GPVTG,242.79,T,,M,9.39,N,17.41,K,A*07
$GPGGA,220350.000,4910.1642,N,12257.4018,W,1,7,1.05,-9.2,M,-16.8,M,,*4C
$GPGSA,A,3,32,21,27,10,20,01,24,,,,,,1.31,1.05,0.79*08
$GPGSV,3,1,12,32,79,155,20,21,71,207,17,10,49,082,31,11,47,281,*7E
$GPGSV,3,2,12,48,32,193,,01,30,310,23,08,29,245,,22,19,279,18*71
$GPGSV,3,3,12,20,16,097,18,27,15,212,15,24,15,039,26,31,10,162,*76
$GPRMC,220350.000,A,4910.1642,N,12257.4018,W,10.13,248.60,180920,,,A*40
$GPVTG,248.60,T,,M,10.13,N,18.77,K,A*3F
$GPGGA,220351.000,4910.1622,N,12257.4072,W,1,8,0.99,-9.0,M,-16.8,M,,*4E
$GPGSA,A,3,32,21,27,10,11,20,01,24,,,,,1.26,0.99,0.79*0A
$GPRMC,220351.000,A,4910.1622,N,12257.4072,W,12.11,248.83,180920,,,A*46
$GPVTG,248.83,T,,M,12.11,N,22.44,K,A*3B
$GPGGA,220352.000,4910.1606,N,12257.4124,W,1,7,1.05,-9.0,M,-16.8,M,,*42
$GPGSA,A,3,32,21,27,10,20,01,24,,,,,,1.31,1.05,0.79*08
$GPRMC,220352.000,A,4910.1606,N,12257.4124,W,12.63,248.43,180920,,,A*48
$GPVTG,248.43,T,,M,12.63,N,23.40,K,A*37
$GPGGA,220353.000,4910.1591,N,12257.4176,W,1,7,1.05,-9.1,M,-16.8,M,,*48
$GPGSA,A,3,32,21,27,10,20,01,24,,,,,,1.31,1.05,0.79*08
$GPRMC,220353.000,A,4910.1591,N,12257.4176,W,12.61,247.45,180920,,,A*48
$GPVTG,247.45,T,,M,12.61,N,23.37,K,A*3C
$GPGGA,220354.000,4910.1576,N,12257.4229,W,1,7,1.05,-9.2,M,-16.8,M,,*4C
$GPGSA,A,3,32,21,27,10,20,01,24,,,,,,1.31,1.05,0.79*08
$GPRMC,220354.000,A,4910.1576,N,12257.4229,W,12.93,248.87,180920,,,A*43
$GPVTG,248.87,T,,M,12.93,N,23.96,K,A*3B
$GPGGA,220355.000,4910.1571,N,12257.4282,W,1,6,1.22,-8.6,M,-16.8,M,,*4A
$GPGSA,A,3,32,21,27,10,01,24,,,,,,,1.47,1.22,0.82*0A
$GPGSV,3,1,12,32,79,155,22,21,71,207,18,10,49,082,33,11,47,281,*71
$GPGSV,3,2,12,51,31,159,,01,30,310,25,08,29,245,,22,19,279,18*7A
$GPGSV,3,3,12,20,16,097,,27,15,212,16,24,15,039,17,31,10,162,*7E
$GPRMC,220355.000,A,4910.1571,N,12257.4282,W,13.83,253.85,180920,,,A*4C
$GPVTG,253.85,T,,M,13.83,N,25.63,K,A*3F
$GPGGA,220356.000,4910.1563,N,12257.4337,W,1,6,1.22,-8.1,M,-16.8,M,,*42
$GPGSA,A,3,32,21,27,10,01,24,,,,,,,1.47,1.22,0.82*0A
$GPRMC,220356.000,A,4910.1563,N,12257.4337,W,14.40,254.33,180920,,,A*41
$GPVTG,254.33,T,,M,14.40,N,26.68,K,A*35
$GPGGA,220357.000,4910.1554,N,12257.4395,W,1,6,1.22,-7.6,M,-16.8,M,,*47
$GPGSA,A,3,32,21,27,10,01,24,,,,,,,1.47,1.22,0.82*0A
$GPRMC,220357.000,A,4910.1554,N,12257.4395,W,15.37,254.06,180920,,,A*4B
$GPVTG,254.06,T,,M,15.37,N,28.48,K,A*3E
$GPGGA,220358.000,4910.1544,N,12257.4460,W,1,6,1.22,-7.0,M,-16.8,M,,*42
$GPGSA,A,3,32,21,27,10,01,24,,,,,,,1.47,1.22,0.82*0A
$GPRMC,220358.000,A,4910.1544,N,12257.4460,W,16.08,254.05,180920,,,A*44
$GPVTG,254.05,T,,M,16.08,N,29.80,K,A*37
$GPGGA,220359.000,4910.1519,N,12257.4537,W,1,6,1.22,-5.5,M,-16.8,M,,*4F
$GPGSA,A,3,32,21,27,10,01,24,,,,,,,1.47,1.22,0.82*0A
$GPRMC,220359.000,A,4910.1519,N,12257.4537,W,16.90,253.03,180920,,,A*4E
$GPVTG,253.03,T,,M,16.90,N,31.32,K,A*37
$GPGGA,220400.000,4910.1504,N,12257.4608,W,1,6,1.25,-4.9,M,-16.8,M,,*4D
$GPGSA,A,3,32,21,27,10,01,24,,,,,,,1.90,1.25,1.43*0B
$GPGSV,3,1,12,32,79,154,17,21,71,207,15,10,49,082,33,11,47,281,*7B
$GPGSV,3,2,12,51,31,159,30,01,30,310,19,08,29,245,,22,19,279,18*76
$GPGSV,3,3,12,20,16,097,,27,15,212,14,24,15,039,28,31,10,162,*70
$GPRMC,220400.000,A,4910.1504,N,12257.4608,W,17.99,250.19,180920,,,A*46
$GPVTG,250.19,T,,M,17.99,N,33.34,K,A*33
$GPGGA,220401.000,4910.1491,N,12257.4680,W,1,7,1.11,-4.2,M,-16.8,M,,*4C
$GPGSA,A,3,32,21,27,10,01,24,11,,,,,,1.38,1.11,0.81*01
$GPRMC,220401.000,A,4910.1491,N,12257.4680,W,18.59,249.35,180920,,,A*4F
$GPVTG,249.35,T,,M,18.59,N,34.44,K,A*36
$GPGGA,220402.000,4910.1476,N,12257.4749,W,1,6,1.22,-3.6,M,-16.8,M,,*40
$GPGSA,A,3,32,21,27,10,01,24,,,,,,,1.47,1.22,0.82*0A
$GPRMC,220402.000,A,4910.1476,N,12257.4749,W,18.28,249.35,180920,,,A*47
$GPVTG,249.35,T,,M,18.28,N,33.87,K,A*38
$GPGGA,220403.000,4910.1464,N,12257.4819,W,1,6,1.22,-3.0,M,-16.8,M,,*4E
$GPGSA,A,3,32,21,27,10,01,24,,,,,,,1.47,1.22,0.82*0A
$GPRMC,220403.000,A,4910.1464,N,12257.4819,W,18.93,251.72,180920,,,A*45
$GPVTG,251.72,T,,M,18.93,N,35.08,K,A*33
$GPGGA,220404.000,4910.1447,N,12257.4895,W,1,6,1.22,-2.4,M,-16.8,M,,*49
$GPGSA,A,3,32,21,27,10,01,24,,,,,,,1.47,1.22,0.82*0A
$GPRMC,220404.000,A,4910.1447,N,12257.4895,W,19.87,250.00,180920,,,A*47
$GPVTG,250.00,T,,M,19.87,N,36.81,K,A*31
$GPGGA,220405.000,4910.1417,N,12257.4984,W,1,6,1.22,-1.3,M,-16.8,M,,*48
$GPGSA,A,3,32,21,27,10,01,24,,,,,,,1.47,1.22,0.82*0A
$GPGSV,3,1,12,32,79,154,18,21,71,207,14,10,49,082,31,11,47,281,*77
$GPGSV,3,2,12,01,30,310,27,08,29,245,,22,19,279,24,20,16,097,*77
$GPGSV,3,3,12,27,15,212,14,24,15,039,27,31,10,162,,34,,,*43
$GPRMC,220405.000,A,4910.1417,N,12257.4984,W,21.46,247.77,180920,,,A*42
$GPVTG,247.77,T,,M,21.46,N,39.76,K,A*36
$GPGGA,220406.000,4910.1387,N,12257.5075,W,1,7,1.11,-1.0,M,-16.8,M,,*41
$GPGSA,A,3,32,21,27,10,11,01,24,,,,,,1.38,1.11,0.81*01
$GPRMC,220406.000,A,4910.1387,N,12257.5075,W,21.97,247.77,180920,,,A*45
$GPVTG,247.77,T,,M,21.97,N,40.72,K,A*30
$GPGGA,220407.000,4910.1346,N,12257.5172,W,1,6,1.22,-0.1,M,-16.8,M,,*4A
$GPGSA,A,3,32,21,27,10,01,24,,,,,,,1.47,1.22,0.82*0A
$GPRMC,220407.000,A,4910.1346,N,12257.5172,W,22.93,245.95,180920,,,A*46
$GPVTG,245.95,T,,M,22.93,N,42.49,K,A*33
$GPGGA,220408.000,4910.1311,N,12257.5266,W,1,6,1.25,0.4,M,-16.8,M,,*6E
$GPGSA,A,3,32,21,27,10,01,24,,,,,,,1.90,1.25,1.43*0B
$GPRMC,220408.000,A,4910.1311,N,12257.5266,W,23.37,245.27,180920,,,A*4B
$GPVTG,245.27,T,,M,23.37,N,43.31,K,A*3B
$GPGGA,220409.000,4910.1258,N,12257.5372,W,1,6,1.22,1.7,M,-16.8,M,,*62
$GPGSA,A,3,32,21,27,10,01,24,,,,,,,1.47,1.22,0.82*0A
$GPRMC,220409.000,A,4910.1258,N,12257.5372,W,24.28,243.55,180920,,,A*48
$GPVTG,243.55,T,,M,24.28,N,45.00,K,A*35
$GPGGA,220410.000,4910.1223,N,12257.5469,W,1,6,1.22,2.0,M,-16.8,M,,*6F
$GPGSA,A,3,32,21,27,10,01,24,,,,,,,1.47,1.22,0.82*0A
$GPGSV,3,1,12,32,79,154,18,21,71,207,17,10,49,083,30,11,47,281,*74
$GPGSV,3,2,12,01,30,310,17,08,29,245,,22,19,279,20,20,16,097,*70
$GPGSV,3,3,12,27,15,212,15,24,15,039,20,31,10,162,,35,,,*44
$GPRMC,220410.000,A,4910.1223,N,12257.5469,W,24.86,243.42,180920,,,A*43
$GPVTG,243.42,T,,M,24.86,N,46.06,K,A*32
$GPGGA,220411.000,4910.1189,N,12257.5569,W,1,6,1.22,2.2,M,-16.8,M,,*6E
$GPGSA,A,3,32,21,27,10,01,24,,,,,,,1.47,1.22,0.82*0A
$GPRMC,220411.000,A,4910.1189,N,12257.5569,W,25.64,244.22,180920,,,A*4C
$GPVTG,244.22,T,,M,25.64,N,47.51,K,A*3D
$GPGGA,220412.000,4910.1154,N,12257.5672,W,1,6,1.22,2.4,M,-16.8,M,,*62
$GPGSA,A,3,32,21,27,10,01,24,,,,,,,1.47,1.22,0.82*0A
$GPRMC,220412.000,A,4910.1154,N,12257.5672,W,26.04,244.18,180920,,,A*4A
$GPVTG,244.18,T,,M,26.04,N,48.26,K,A*3E
$GPGGA,220413.000,4910.1125,N,12257.5773,W,1,7,1.11,2.5,M,-16.8,M,,*65
$GPGSA,A,3,32,21,27,10,11,01,24,,,,,,1.38,1.11,0.81*01
$GPRMC,220413.000,A,4910.1125,N,12257.5773,W,26.21,245.45,180920,,,A*43
$GPVTG,245.45,T,,M,26.21,N,48.57,K,A*36
$GPGGA,220414.000,4910.1091,N,12257.5877,W,1,7,1.11,2.6,M,-16.8,M,,*64
$GPGSA,A,3,32,21,27,10,11,01,24,,,,,,1.38,1.11,0.81*01
$GPRMC,220414.000,A,4910.1091,N,12257.5877,W,26.43,244.96,180920,,,A*4A
$GPVTG,244.96,T,,M,26.43,N,48.98,K,A*3E
$GPGGA,220415.000,4910.1058,N,12257.5981,W,1,7,1.11,2.8,M,-16.8,M,,*66
$GPGSA,A,3,32,21,27,10,11,01,24,,,,,,1.38,1.11,0.81*01
$GPGSV,3,1,12,32,79,154,19,21,71,207,16,10,49,083,32,11,47,281,23*77
$GPGSV,3,2,12,01,30,310,27,08,29,245,,22,19,279,20,20,16,097,*73
$GPGSV,3,3,12,27,15,212,15,24,15,039,24,31,10,162,,35,,,*40
$GPRMC,220415.000,A,4910.1058,N,12257.5981,W,26.09,245.11,180920,,,A*46
$GPVTG,245.11,T,,M,26.09,N,48.35,K,A*39
$GPGGA,220416.000,4910.1025,N,12257.6087,W,1,7,1.11,2.9,M,-16.8,M,,*62
$GPGSA,A,3,32,21,27,10,11,01,24,,,,,,1.38,1.11,0.81*01
$GPRMC,220416.000,A,4910.1025,N,12257.6087,W,26.97,245.55,180920,,,A*44
$GPVTG,245.55,T,,M,26.97,N,49.98,K,A*38
$GPGGA,220417.000,4910.0990,N,12257.6192,W,1,7,1.11,3.0,M,-16.8,M,,*68
$GPGSA,A,3,32,21,27,10,11,01,24,,,,,,1.38,1.11,0.81*01
$GPRMC,220417.000,A,4910.0990,N,12257.6192,W,27.26,244.93,180920,,,A*46
$GPVTG,244.93,T,,M,27.26,N,50.51,K,A*35
$GPGGA,220418.000,4910.0957,N,12257.6297,W,1,6,1.22,3.1,M,-16.8,M,,*6A
$GPGSA,A,3,32,21,27,10,01,24,,,,,,,1.47,1.22,0.82*0A
$GPRMC,220418.000,A,4910.0957,N,12257.6297,W,27.25,244.34,180920,,,A*4A
$GPVTG,244.34,T,,M,27.25,N,50.50,K,A*3A
$GPGGA,220419.000,4910.0929,N,12257.6400,W,1,6,1.22,3.2,M,-16.8,M,,*69
$GPGSA,A,3,32,21,27,10,01,24,,,,,,,1.47,1.22,0.82*0A
$GPRMC,220419.000,A,4910.0929,N,12257.6400,W,26.50,246.04,180920,,,A*48
$GPVTG,246.04,T,,M,26.50,N,49.11,K,A*35
$GPGGA,220420.000,4910.0903,N,12257.6502,W,1,6,1.22,3.3,M,-16.8,M,,*69
$GPGSA,A,3,32,21,27,10,01,24,,,,,,,1.47,1.22,0.82*0A
$GPGSV,3,1,12,32,79,154,19,21,71,207,14,10,49,083,31,11,47,281,*77
$GPGSV,3,2,12,01,30,310,21,08,29,245,,22,19,279,21,20,16,097,*74
$GPGSV,3,3,12,27,15,212,14,24,15,039,21,31,10,162,,36,,,*47
$GPRMC,220420.000,A,4910.0903,N,12257.6502,W,26.01,247.39,180920,,,A*42
$GPVTG,247.39,T,,M,26.01,N,48.20,K,A*3D
$GPGGA,220421.000,4910.0871,N,12257.6604,W,1,6,1.22,3.5,M,-16.8,M,,*6F
$GPGSA,A,3,32,21,27,10,01,24,,,,,,,1.47,1.22,0.82*0A
$GPRMC,220421.000,A,4910.0871,N,12257.6604,W,26.07,247.33,180920,,,A*4E
$GPVTG,247.33,T,,M,26.07,N,48.30,K,A*30
$GPGGA,220422.000,4910.0836,N,12257.6708,W,1,6,1.22,3.5,M,-16.8,M,,*62
$GPGSA,A,3,32,21,27,10,01,24,,,,,,,1.47,1.22,0.82*0A
$GPRMC,220422.000,A,4910.0836,N,12257.6708,W,26.31,245.95,180920,,,A*48
$GPVTG,245.95,T,,M,26.31,N,48.75,K,A*3A
$GPGGA,220423.000,4910.0799,N,12257.6812,W,1,6,1.22,3.6,M,-16.8,M,,*6E
$GPGSA,A,3,32,21,27,10,01,24,,,,,,,1.47,1.22,0.82*0A
$GPRMC,220423.000,A,4910.0799,N,12257.6812,W,26.33,245.40,180920,,,A*4D
$GPVTG,245.40,T,,M,26.33,N,48.79,K,A*3C
$GPGGA,220424.000,4910.0763,N,12257.6915,W,1,6,1.22,3.7,M,-16.8,M,,*6B
$GPGSA,A,3,32,21,27,10,01,24,,,,,,,1.47,1.22,0.82*0A
$GPRMC,220424.000,A,4910.0763,N,12257.6915,W,26.29,244.77,180920,,,A*47
$GPVTG,244.77,T,,M,26.29,N,48.72,K,A*39
$GPGGA,220425.000,4910.0732,N,12257.7016,W,1,6,1.22,3.8,M,-16.8,M,,*6A
$GPGSA,A,3,32,21,27,10,01,24,,,,,,,1.47,1.22,0.82*0A
$GPGSV,3,1,12,32,79,154,18,21,71,207,14,10,49,083,32,11,47,281,*75
$GPGSV,3,2,12,01,30,310,20,08,29,245,,22,19,279,18,20,16,097,*7F
$GPGSV,3,3,12,27,15,212,15,24,14,039,19,31,10,162,,38,,,*42
$GPRMC,220425.000,A,4910.0732,N,12257.7016,W,26.34,245.47,180920,,,A*47
$GPVTG,245.47,T,,M,26.34,N,48.81,K,A*3B
$GPGGA,220426.000,4910.0700,N,12257.7118,W,1,6,1.22,3.9,M,-16.8,M,,*66
$GPGSA,A,3,32,21,27,10,01,24,,,,,,,1.47,1.22,0.82*0A
$GPRMC,220426.000,A,4910.0700,N,12257.7118,W,25.66,245.82,180920,,,A*47
$GPVTG,245.82,T,,M,25.66,N,47.56,K,A*33
$GPGGA,220427.000,4910.0670,N,12257.7219,W,1,6,1.22,3.9,M,-16.8,M,,*63
$GPGSA,A,3,32,21,27,10,01,24,,,,,,,1.47,1.22,0.82*0A
$GPRMC,220427.000,A,4910.0670,N,12257.7219,W,26.00,245.63,180920,,,A*4E
$GPVTG,245.63,T,,M,26.00,N,48.18,K,A*3A
$GPGGA,220428.000,4910.0624,N,12257.7330,W,1,6,1.22,4.0,M,-16.8,M,,*69
$GPGSA,A,3,32,21,27,10,01,24,,,,,,,1.47,1.22,0.82*0A
$GPRMC,220428.000,A,4910.0624,N,12257.7330,W,26.71,244.34,180920,,,A*4F
$GPVTG,244.34,T,,M,26.71,N,49.50,K,A*32
$GPGGA,220429.000,4910.0593,N,12257.7435,W,1,6,1.22,4.1,M,-16.8,M,,*64
$GPGSA,A,3,32,21,27,10,01,24,,,,,,,1.47,1.22,0.82*0A
$GPRMC,220429.000,A,4910.0593,N,12257.7435,W,26.90,244.81,180920,,,A*42
$GPVTG,244.81,T,,M,26.90,N,49.85,K,A*3B
$GPGGA,220430.000,4910.0553,N,12257.7543,W,1,6,1.22,4.2,M,-16.8,M,,*63
$GPGSA,A,3,32,21,27,10,01,24,,,,,,,1.47,1.22,0.82*0A
$GPGSV,3,1,12,32,79,154,19,21,71,207,16,10,49,083,32,11,47,281,*76
$GPGSV,3,2,12,01,30,310,25,08,29,245,,22,19,279,20,20,16,097,*71
$GPGSV,3,3,12,27,15,212,14,24,14,039,30,31,10,162,,41,,,*46
$GPRMC,220430.000,A,4910.0553,N,12257.7543,W,26.95,244.36,180920,,,A*4F
$GPVTG,244.36,T,,M,26.95,N,49.93,K,A*35
$GPGGA,220431.000,4910.0520,N,12257.7645,W,1,6,1.25,4.2,M,-16.8,M,,*64
$GPGSA,A,3,32,21,27,10,01,24,,,,,,,1.89,1.25,1.42*02
$GPRMC,220431.000,A,4910.0520,N,12257.7645,W,26.51,244.14,180920,,,A*47
$GPVTG,244.14,T,,M,26.51,N,49.12,K,A*34
$GPGGA,220432.000,4910.0483,N,12257.7751,W,1,6,1.22,4.3,M,-16.8,M,,*6D
$GPGSA,A,3,32,21,27,10,01,24,,,,,,,1.47,1.22,0.82*0A
$GPRMC,220432.000,A,4910.0483,N,12257.7751,W,26.15,244.33,180920,,,A*4D
$GPVTG,244.33,T,,M,26.15,N,48.46,K,A*31
$GPGGA,220433.000,4910.0445,N,12257.7853,W,1,6,1.25,4.4,M,-16.8,M,,*6B
$GPGSA,A,3,32,21,27,10,01,24,,,,,,,1.89,1.25,1.42*02
$GPRMC,220433.000,A,4910.0445,N,12257.7853,W,26.21,242.70,180920,,,A*4D
$GPVTG,242.70,T,,M,26.21,N,48.56,K,A*36
$GPGGA,220434.000,4910.0401,N,12257.7956,W,1,6,1.22,4.4,M,-16.8,M,,*6F
$GPGSA,A,3,32,21,27,10,01,24,,,,,,,1.47,1.22,0.82*0A
$GPRMC,220434.000,A,4910.0401,N,12257.7956,W,27.01,239.92,180920,,,A*4D
$GPVTG,239.92,T,,M,27.01,N,50.05,K,A*3A
$GPGGA,220435.000,4910.0357,N,12257.8057,W,1,6,1.22,4.4,M,-16.8,M,,*6D
$GPGSA,A,3,32,21,27,10,01,24,,,,,,,1.47,1.22,0.82*0A
$GPGSV,3,1,12,32,79,153,19,21,71,207,16,10,49,083,30,11,47,281,*73
$GPGSV,3,2,12,01,30,310,24,08,29,245,,22,19,279,21,20,16,097,*71
$GPGSV,3,3,12,27,15,212,14,24,14,039,18,31,10,162,,43,,,*4E
$GPRMC,220435.000,A,4910.0357,N,12257.8057,W,27.05,237.99,180920,,,A*4E
$GPVTG,237.99,T,,M,27.05,N,50.13,K,A*3C
$GPGGA,220436.000,4910.0311,N,12257.8150,W,1,6,1.22,4.4,M,-16.8,M,,*6A
$GPGSA,A,3,32,21,27,10,01,24,,,,,,,1.47,1.22,0.82*0A
$GPRMC,220436.000,A,4910.0311,N,12257.8150,W,26.30,235.19,180920,,,A*44
$GPVTG,235.19,T,,M,26.30,N,48.73,K,A*3E
$GPGGA,220437.000,4910.0263,N,12257.8236,W,1,6,1.22,4.4,M,-16.8,M,,*6C
$GPGSA,A,3,32,21,27,10,01,24,,,,,,,1.47,1.22,0.82*0A
$GPRMC,220437.000,A,4910.0263,N,12257.8236,W,26.03,232.14,180920,,,A*48
$GPVTG,232.14,T,,M,26.03,N,48.24,K,A*36
$GPGGA,220438.000,4910.0207,N,12257.8314,W,1,6,1.22,4.4,M,-16.8,M,,*60
$GPGSA,A,3,32,21,27,10,01,24,,,,,,,1.47,1.22,0.82*0A
$GPRMC,220438.000,A,4910.0207,N,12257.8314,W,25.87,228.07,180920,,,A*42
$GPVTG,228.07,T,,M,25.87,N,47.93,K,A*33
$GPGGA,220439.000,4910.0149,N,12257.8391,W,1,6,1.22,4.4,M,-16.8,M,,*65
$GPGSA,A,3,32,21,27,10,01,24,,,,,,,1.47,1.22,0.82*0A
$GPRMC,220439.000,A,4910.0149,N,12257.8391,W,25.94,224.30,180920,,,A*4D
$GPVTG,224.30,T,,M,25.94,N,48.07,K,A*3B
$GPGGA,220440.000,4910.0092,N,12257.8457,W,1,6,1.41,4.5,M,-16.8,M,,*65
$GPGSA,A,3,32,21,10,01,24,20,,,,,,,1.69,1.41,0.92*05
$GPGSV,3,1,12,32,79,153,17,21,71,207,17,10,49,083,26,11,47,281,*7B
$GPGSV,3,2,12,01,30,309,25,08,29,245,,22,19,279,19,20,16,097,18*7A
$GPGSV,3,3,12,27,15,212,,24,14,039,14,31,10,162,,45,,,*41
$GPRMC,220440.000,A,4910.0092,N,12257.8457,W,25.48,220.34,180920,,,A*48
$GPVTG,220.34,T,,M,25.48,N,47.21,K,A*31
$GPGGA,220441.000,4910.0036,N,12257.8524,W,1,6,1.41,4.6,M,-16.8,M,,*6C
$GPGSA,A,3,32,21,10,01,24,20,,,,,,,1.69,1.41,0.92*05
$GPRMC,220441.000,A,4910.0036,N,12257.8524,W,25.45,219.33,180920,,,A*42
$GPVTG,219.33,T,,M,25.45,N,47.17,K,A*34
$GPGGA,220442.000,4909.9976,N,12257.8591,W,1,6,1.41,4.6,M,-16.8,M,,*6D
$GPGSA,A,3,32,21,10,01,24,20,,,,,,,1.69,1.41,0.92*05
$GPRMC,220442.000,A,4909.9976,N,12257.8591,W,25.49,218.38,180920,,,A*45
$GPVTG,218.38,T,,M,25.49,N,47.24,K,A*32
$GPGGA,220443.000,4909.9908,N,12257.8662,W,1,6,1.41,4.5,M,-16.8,M,,*69
$GPGSA,A,3,32,21,10,01,24,20,,,,,,,1.69,1.41,0.92*05
$GPRMC,220443.000,A,4909.9908,N,12257.8662,W,26.17,217.95,180920,,,A*42
$GPVTG,217.95,T,,M,26.17,N,48.49,K,A*36
$GPGGA,220444.000,4909.9844,N,12257.8731,W,1,7,1.34,4.5,M,-16.8,M,,*63
$GPGSA,A,3,11,32,21,10,01,24,20,,,,,,1.63,1.34,0.92*0D
$GPRMC,220444.000,A,4909.9844,N,12257.8731,W,26.33,217.56,180920,,,A*42
$GPVTG,217.56,T,,M,26.33,N,48.80,K,A*3A
$GPGGA,220445.000,4909.9779,N,12257.8795,W,1,7,1.34,4.5,M,-16.8,M,,*6D
$GPGSA,A,3,11,32,21,10,01,24,20,,,,,,1.63,1.34,0.92*0D
$GPGSV,3,1,12,32,79,153,17,21,71,207,15,10,49,083,25,11,47,281,23*7B
$GPGSV,3,2,12,01,30,309,29,08,28,245,,22,19,279,17,20,16,097,19*78
$GPGSV,3,3,12,27,15,212,,24,14,039,17,31,10,162,,45,,,*42
$GPRMC,220445.000,A,4909.9779,N,12257.8795,W,26.39,217.08,180920,,,A*4D
$GPVTG,217.08,T,,M,26.39,N,48.90,K,A*3A
$GPGGA,220446.000,4909.9715,N,12257.8851,W,1,7,1.34,4.6,M,-16.8,M,,*60
$GPGSA,A,3,11,32,21,10,01,24,20,,,,,,1.63,1.34,0.92*0D
$GPRMC,220446.000,A,4909.9715,N,12257.8851,W,25.73,216.35,180920,,,A*41
$GPVTG,216.35,T,,M,25.73,N,47.67,K,A*3F
$GPGGA,220447.000,4909.9665,N,12257.8902,W,1,7,1.82,4.8,M,-16.8,M,,*63
$GPGSA,A,3,11,32,21,10,01,24,20,,,,,,2.94,1.82,2.31*00
$GPRMC,220447.000,A,4909.9665,N,12257.8902,W,23.34,216.66,180920,,,A*42
$GPVTG,216.66,T,,M,23.34,N,43.25,K,A*3E
$GPGGA,220448.000,4909.9618,N,12257.8952,W,1,7,1.82,5.2,M,-16.8,M,,*68
$GPGSA,A,3,11,32,21,10,01,24,20,,,,,,2.94,1.82,2.31*00
$GPRMC,220448.000,A,4909.9618,N,12257.8952,W,21.86,214.65,180920,,,A*48
$GPVTG,214.65,T,,M,21.86,N,40.51,K,A*34
$GPGGA,220449.000,4909.9576,N,12257.8992,W,1,7,1.34,5.2,M,-16.8,M,,*63
$GPGSA,A,3,11,32,21,10,01,24,20,,,,,,1.63,1.34,0.92*0D
$GPRMC,220449.000,A,4909.9576,N,12257.8992,W,20.15,214.60,180920,,,A*40
$GPVTG,214.60,T,,M,20.15,N,37.34,K,A*39
$GPGGA,220450.000,4909.9541,N,12257.9026,W,1,7,1.34,5.5,M,-16.8,M,,*6F
$GPGSA,A,3,11,32,21,10,01,24,20,,,,,,1.63,1.34,0.92*0D
$GPGSV,3,1,12,32,79,153,20,21,71,207,17,10,49,083,26,11,47,281,22*7F
$GPGSV,3,2,12,01,30,309,25,08,28,245,,22,19,279,19,20,16,097,20*70
$GPGSV,3,3,12,27,15,212,,24,14,039,18,31,10,162,,47,,,*4F
$GPRMC,220450.000,A,4909.9541,N,12257.9026,W,17.58,211.41,180920,,,A*40
$GPVTG,211.41,T,,M,17.58,N,32.58,K,A*3D
$GPGGA,220451.000,4909.9519,N,12257.9047,W,1,7,1.81,5.7,M,-16.8,M,,*68
$GPGSA,A,3,11,32,21,10,01,24,20,,,,,,2.93,1.81,2.31*04
$GPRMC,220451.000,A,4909.9519,N,12257.9047,W,13.79,203.31,180920,,,A*48
$GPVTG,203.31,T,,M,13.79,N,25.55,K,A*35
$GPGGA,220452.000,4909.9477,N,12257.9070,W,1,7,1.34,5.8,M,-16.8,M,,*67
$GPGSA,A,3,11,32,21,10,01,24,20,,,,,,1.63,1.34,0.92*0D
$GPRMC,220452.000,A,4909.9477,N,12257.9070,W,14.54,200.01,180920,,,A*4E
$GPVTG,200.01,T,,M,14.54,N,26.94,K,A*33
$GPGGA,220453.000,4909.9470,N,12257.9071,W,1,8,0.99,7.6,M,-16.8,M,,*65
$GPGSA,A,3,11,32,21,27,10,01,24,20,,,,,1.26,0.99,0.78*0B
$GPRMC,220453.000,A,4909.9470,N,12257.9071,W,13.54,193.35,180920,,,A*40
$GPVTG,193.35,T,,M,13.54,N,25.09,K,A*3D
$GPGGA,220454.000,4909.9449,N,12257.9075,W,1,8,0.99,8.0,M,-16.8,M,,*65
$GPGSA,A,3,11,32,21,27,10,01,24,20,,,,,1.26,0.99,0.78*0B
$GPRMC,220454.000,A,4909.9449,N,12257.9075,W,11.61,184.71,180920,,,A*4B
$GPVTG,184.71,T,,M,11.61,N,21.51,K,A*36
$GPGGA,220455.000,4909.9430,N,12257.9059,W,1,9,0.95,8.9,M,-16.8,M,,*60
$GPGSA,A,3,11,32,21,27,10,08,01,24,20,,,,1.23,0.95,0.78*0A
$GPGSV,3,1,12,32,79,153,14,21,71,207,27,10,49,083,17,11,47,281,30*7A
$GPGSV,3,2,12,01,30,309,28,08,28,245,31,22,19,279,20,20,16,097,17*71
$GPGSV,3,3,12,27,15,212,23,24,14,039,17,31,10,162,,49,,,*4F
$GPRMC,220455.000,A,4909.9430,N,12257.9059,W,11.34,171.93,180920,,,A*4C
$GPVTG,171.93,T,,M,11.34,N,21.01,K,A*35
$GPGGA,220456.000,4909.9403,N,12257.9045,W,1,9,0.95,9.2,M,-16.8,M,,*64
$GPGSA,A,3,11,32,21,27,10,08,01,24,20,,,,1.23,0.95,0.78*0A
$GPRMC,220456.000,A,4909.9403,N,12257.9045,W,11.13,165.46,180920,,,A*4A
$GPVTG,165.46,T,,M,11.13,N,20.63,K,A*38
$GPGGA,220457.000,4909.9373,N,12257.9026,W,1,9,0.95,9.5,M,-16.8,M,,*67
$GPGSA,A,3,11,32,21,27,10,08,01,24,20,,,,1.23,0.95,0.78*0A
$GPRMC,220457.000,A,4909.9373,N,12257.9026,W,11.20,160.92,180920,,,A*42
$GPVTG,160.92,T,,M,11.20,N,20.76,K,A*30
$GPGGA,220458.000,4909.9348,N,12257.9001,W,1,9,0.95,9.7,M,-16.8,M,,*67
$GPGSA,A,3,11,32,21,27,10,08,01,24,20,,,,1.55,0.95,1.23*04
$GPRMC,220458.000,A,4909.9348,N,12257.9001,W,10.85,152.96,180920,,,A*4B
$GPVTG,152.96,T,,M,10.85,N,20.10,K,A*3B
$GPGGA,220459.000,4909.9326,N,12257.8970,W,1,9,0.95,10.0,M,-16.8,M,,*5F
$GPGSA,A,3,11,32,21,27,10,08,01,24,20,,,,1.23,0.95,0.78*0A
$GPRMC,220459.000,A,4909.9326,N,12257.8970,W,10.51,147.74,180920,,,A*4D
$GPVTG,147.74,T,,M,10.51,N,19.48,K,A*3D
$GPGGA,220500.000,4909.9304,N,12257.8932,W,1,9,0.95,10.4,M,-16.8,M,,*50
$GPGSA,A,3,11,32,21,27,10,08,01,24,20,,,,1.23,0.95,0.78*0A
$GPGSV,3,1,12,32,79,153,17,21,71,206,20,10,49,083,18,11,47,281,17*75
$GPGSV,3,2,12,46,33,188,,01,30,309,27,08,28,245,27,22,19,279,21*76
$GPGSV,3,3,12,20,16,097,13,27,15,212,15,24,14,039,15,31,10,162,*7C
$GPRMC,220500.000,A,4909.9304,N,12257.8932,W,11.52,141.44,180920,,,A*41
$GPVTG,141.44,T,,M,11.52,N,21.35,K,A*3B
$GPGGA,220501.000,4909.9272,N,12257.8894,W,1,9,0.95,10.6,M,-16.8,M,,*5E
$GPGSA,A,3,11,32,21,27,10,08,01,24,20,,,,1.23,0.95,0.78*0A
$GPRMC,220501.000,A,4909.9272,N,12257.8894,W,12.84,142.39,180920,,,A*4C
$GPVTG,142.39,T,,M,12.84,N,23.78,K,A*31
$GPGGA,220502.000,4909.9239,N,12257.8853,W,1,10,0.84,10.7,M,-16.8,M,,*60
$GPGSA,A,3,11,32,21,27,10,08,31,01,24,20,,,1.42,0.84,1.15*05
$GPRMC,220502.000,A,4909.9239,N,12257.8853,W,14.25,140.78,180920,,,A*41
$GPVTG,140.78,T,,M,14.25,N,26.40,K,A*35
$GPGGA,220503.000,4909.9204,N,12257.8810,W,1,10,0.84,11.0,M,-16.8,M,,*6E
$GPGSA,A,3,11,32,21,27,10,08,31,01,24,20,,,1.42,0.84,1.15*05
$GPRMC,220503.000,A,4909.9204,N,12257.8810,W,15.24,142.23,180920,,,A*45
$GPVTG,142.23,T,,M,15.24,N,28.25,K,A*34
$GPGGA,220504.000,4909.9169,N,12257.8771,W,1,10,0.84,11.3,M,-16.8,M,,*6A
$GPGSA,A,3,11,32,21,27,10,08,31,01,24,20,,,1.43,0.84,1.15*04
$GPRMC,220504.000,A,4909.9169,N,12257.8771,W,15.66,142.46,180920,,,A*47
$GPVTG,142.46,T,,M,15.66,N,29.03,K,A*34
$GPGGA,220505.000,4909.9139,N,12257.8719,W,1,10,0.83,11.7,M,-16.8,M,,*63
$GPGSA,A,3,11,32,21,27,10,08,31,01,24,20,,,1.12,0.83,0.75*00
$GPGSV,3,1,12,32,79,153,14,21,71,206,22,10,49,083,17,11,47,281,17*7B
$GPGSV,3,2,12,46,33,188,,01,30,309,28,08,28,245,27,22,19,279,30*79
$GPGSV,3,3,12,20,16,097,16,27,15,212,29,24,14,039,17,31,10,162,18*7D
$GPRMC,220505.000,A,4909.9139,N,12257.8719,W,16.39,143.34,180920,,,A*40
$GPVTG,143.34,T,,M,16.39,N,30.38,K,A*39
$GPGGA,220506.000,4909.9102,N,12257.8673,W,1,10,0.84,11.9,M,-16.8,M,,*6C
$GPGSA,A,3,11,32,21,27,10,08,31,01,24,20,,,1.43,0.84,1.15*04
$GPRMC,220506.000,A,4909.9102,N,12257.8673,W,16.78,142.96,180920,,,A*4A
$GPVTG,142.96,T,,M,16.78,N,31.09,K,A*36
$GPGGA,220507.000,4909.9064,N,12257.8630,W,1,10,0.83,12.3,M,-16.8,M,,*65
$GPGSA,A,3,11,32,21,27,10,08,31,01,24,20,,,1.12,0.83,0.75*00
$GPRMC,220507.000,A,4909.9064,N,12257.8630,W,17.08,141.46,180920,,,A*45
$GPVTG,141.46,T,,M,17.08,N,31.64,K,A*35
$GPGGA,220508.000,4909.9023,N,12257.8580,W,1,10,0.84,12.4,M,-16.8,M,,*61
$GPGSA,A,3,11,32,21,27,10,08,31,01,24,20,,,1.42,0.84,1.15*05
$GPRMC,220508.000,A,4909.9023,N,12257.8580,W,18.38,140.69,180920,,,A*41
$GPVTG,140.69,T,,M,18.38,N,34.06,K,A*34
$GPGGA,220509.000,4909.8981,N,12257.8533,W,1,10,0.84,12.9,M,-16.8,M,,*65
$GPGSA,A,3,11,32,21,27,10,08,31,01,24,20,,,1.42,0.84,1.15*05
$GPRMC,220509.000,A,4909.8981,N,12257.8533,W,19.00,141.38,180920,,,A*47
$GPVTG,141.38,T,,M,19.00,N,35.21,K,A*3F
$GPGGA,220510.000,4909.8939,N,12257.8484,W,1,10,0.83,13.2,M,-16.8,M,,*6E
$GPGSA,A,3,11,32,21,27,10,08,31,01,24,20,,,1.12,0.83,0.75*00
$GPGSV,3,1,12,32,79,151,16,21,71,206,21,10,49,083,15,11,47,281,18*75
$GPGSV,3,2,12,44,33,172,,01,30,309,27,08,28,245,27,22,19,279,21*71
$GPGSV,3,3,12,20,16,097,15,27,15,212,26,24,14,039,13,31,10,162,19*74
$GPRMC,220510.000,A,4909.8939,N,12257.8484,W,19.42,141.61,180920,,,A*4B
$GPVTG,141.61,T,,M,19.42,N,35.99,K,A*36
$GPGGA,220511.000,4909.8894,N,12257.8428,W,1,10,0.83,13.5,M,-16.8,M,,*68
$GPGSA,A,3,11,32,21,27,10,08,31,01,24,20,,,1.12,0.83,0.75*00
$GPRMC,220511.000,A,4909.8894,N,12257.8428,W,20.33,141.64,180920,,,A*43
$GPVTG,141.64,T,,M,20.33,N,37.67,K,A*3C
$GPGGA,220512.000,4909.8847,N,12257.8368,W,1,10,0.84,13.8,M,-16.8,M,,*6C
$GPGSA,A,3,11,32,21,27,10,08,31,01,24,20,,,1.42,0.84,1.15*05
$GPRMC,220512.000,A,4909.8847,N,12257.8368,W,21.22,143.01,180920,,,A*4D
$GPVTG,143.01,T,,M,21.22,N,39.33,K,A*33
$GPGGA,220513.000,4909.8799,N,12257.8306,W,1,9,0.90,14.0,M,-16.8,M,,*5B
$GPGSA,A,3,11,32,21,27,10,08,31,01,24,,,,1.49,0.90,1.18*04
$GPRMC,220513.000,A,4909.8799,N,12257.8306,W,21.94,141.97,180920,,,A*48
$GPVTG,141.97,T,,M,21.94,N,40.65,K,A*3E
$GPGGA,220514.000,4909.8749,N,12257.8239,W,1,9,0.90,14.1,M,-16.8,M,,*5D
$GPGSA,A,3,11,32,21,27,10,08,31,01,24,,,,1.49,0.90,1.18*04
$GPRMC,220514.000,A,4909.8749,N,12257.8239,W,23.12,141.36,180920,,,A*48
$GPVTG,141.36,T,,M,23.12,N,42.85,K,A*35
$GPGGA,220515.000,4909.8700,N,12257.8172,W,1,9,0.90,14.2,M,-16.8,M,,*5E
$GPGSA,A,3,11,32,21,27,10,08,31,01,24,,,,1.49,0.90,1.18*04
$GPGSV,3,1,12,32,79,151,13,21,71,206,21,10,49,083,16,11,47,281,19*72
$GPGSV,3,2,12,44,33,172,,01,31,309,27,08,28,245,26,22,19,279,29*79
$GPGSV,3,3,12,20,16,097,,27,15,212,26,24,14,039,11,31,10,162,23*7B
$GPRMC,220515.000,A,4909.8700,N,12257.8172,W,23.31,140.13,180920,,,A*4F
$GPVTG,140.13,T,,M,23.31,N,43.18,K,A*37
$GPGGA,220516.000,4909.8649,N,12257.8104,W,1,9,0.90,14.3,M,-16.8,M,,*51
$GPGSA,A,3,11,32,21,27,10,08,31,01,24,,,,1.49,0.90,1.18*04
$GPRMC,220516.000,A,4909.8649,N,12257.8104,W,24.06,139.10,180920,,,A*4F
$GPVTG,139.10,T,,M,24.06,N,44.58,K,A*3A
$GPGGA,220517.000,4909.8599,N,12257.8032,W,1,9,0.90,14.4,M,-16.8,M,,*5D
$GPGSA,A,3,11,32,21,27,10,08,31,01,24,,,,1.49,0.90,1.18*04
$GPRMC,220517.000,A,4909.8599,N,12257.8032,W,24.07,139.82,180920,,,A*4E
$GPVTG,139.82,T,,M,24.07,N,44.60,K,A*3B
$GPGGA,220518.000,4909.8548,N,12257.7953,W,1,9,0.90,14.3,M,-16.8,M,,*58
$GPGSA,A,3,11,32,21,27,10,08,31,01,24,,,,1.49,0.90,1.18*04
$GPRMC,220518.000,A,4909.8548,N,12257.7953,W,24.48,139.40,180920,,,A*49
$GPVTG,139.40,T,,M,24.48,N,45.36,K,A*3C
$GPGGA,220519.000,4909.8494,N,12257.7877,W,1,9,0.90,14.5,M,-16.8,M,,*58
$GPGSA,A,3,11,32,21,27,10,08,31,01,24,,,,1.49,0.90,1.18*04
$GPRMC,220519.000,A,4909.8494,N,12257.7877,W,25.14,138.95,180920,,,A*4E
$GPVTG,138.95,T,,M,25.14,N,46.59,K,A*37
$GPGGA,220520.000,4909.8439,N,12257.7795,W,1,9,0.90,14.6,M,-16.8,M,,*55
$GPGSA,A,3,11,32,21,27,10,08,31,01,24,,,,1.49,0.90,1.18*04
$GPGSV,3,1,12,32,79,151,15,21,71,206,23,10,49,083,16,11,47,281,20*7C
$GPGSV,3,2,12,48,32,193,,01,31,309,28,08,28,244,26,22,19,279,27*7B
$GPGSV,3,3,12,20,16,097,,27,15,212,26,24,14,039,15,31,10,162,20*7C
$GPRMC,220520.000,A,4909.8439,N,12257.7795,W,26.10,139.97,180920,,,A*44
$GPVTG,139.97,T,,M,26.10,N,48.35,K,A*37
$GPGGA,220521.000,4909.8386,N,12257.7713,W,1,8,1.07,14.7,M,-16.8,M,,*56
$GPGSA,A,3,11,32,21,27,10,08,01,24,,,,,1.34,1.07,0.80*03
$GPRMC,220521.000,A,4909.8386,N,12257.7713,W,25.60,139.15,180920,,,A*46
$GPVTG,139.15,T,,M,25.60,N,47.44,K,A*30
$GPGGA,220522.000,4909.8333,N,12257.7637,W,1,8,1.07,14.8,M,-16.8,M,,*53
$GPGSA,A,3,11,32,21,27,10,08,01,24,,,,,1.34,1.07,0.80*03
$GPRMC,220522.000,A,4909.8333,N,12257.7637,W,25.03,139.14,180920,,,A*48
$GPVTG,139.14,T,,M,25.03,N,46.39,K,A*3F
$GPGGA,220523.000,4909.8280,N,12257.7565,W,1,8,1.07,14.8,M,-16.8,M,,*5F
$GPGSA,A,3,11,32,21,27,10,08,01,24,,,,,1.34,1.07,0.80*03
$GPRMC,220523.000,A,4909.8280,N,12257.7565,W,25.07,138.95,180920,,,A*48
$GPVTG,138.95,T,,M,25.07,N,46.46,K,A*3B
$GPGGA,220524.000,4909.8230,N,12257.7492,W,1,8,1.08,14.8,M,-16.8,M,,*55
$GPGSA,A,3,11,32,21,27,10,08,01,24,,,,,1.73,1.08,1.35*00
$GPRMC,220524.000,A,4909.8230,N,12257.7492,W,24.03,139.88,180920,,,A*45
$GPVTG,139.88,T,,M,24.03,N,44.52,K,A*34
$GPGGA,220525.000,4909.8185,N,12257.7429,W,1,8,1.08,14.8,M,-16.8,M,,*59
$GPGSA,A,3,11,32,21,27,10,08,01,24,,,,,1.73,1.08,1.35*00
$GPGSV,3,1,12,32,79,151,16,21,71,206,23,10,49,083,17,11,47,280,23*7C
$GPGSV,3,2,12,48,32,193,,01,31,309,26,08,28,244,23,22,19,279,*75
$GPGSV,3,3,12,20,16,097,,27,15,212,24,24,14,039,15,31,10,162,*7C
$GPRMC,220525.000,A,4909.8185,N,12257.7429,W,22.35,139.29,180920,,,A*41
$GPVTG,139.29,T,,M,22.35,N,41.41,K,A*3B
$GPGGA,220526.000,4909.8144,N,12257.7367,W,1,8,1.08,14.9,M,-16.8,M,,*5B
$GPGSA,A,3,11,32,21,27,10,08,01,24,,,,,1.73,1.08,1.35*00
$GPRMC,220526.000,A,4909.8144,N,12257.7367,W,20.31,137.43,180920,,,A*46
$GPVTG,137.43,T,,M,20.31,N,37.63,K,A*3E
$GPGGA,220527.000,4909.8110,N,12257.7314,W,1,8,1.08,14.8,M,-16.8,M,,*5E
$GPGSA,A,3,11,32,21,27,10,08,01,24,,,,,1.73,1.08,1.35*00
$GPRMC,220527.000,A,4909.8110,N,12257.7314,W,18.23,138.34,180920,,,A*45
$GPVTG,138.34,T,,M,18.23,N,33.77,K,A*38
$GPGGA,220528.000,4909.8082,N,12257.7272,W,1,8,1.07,14.6,M,-16.8,M,,*5B
$GPGSA,A,3,11,32,21,27,10,08,01,24,,,,,1.34,1.07,0.80*03
$GPRMC,220528.000,A,4909.8082,N,12257.7272,W,15.95,140.39,180920,,,A*43
$GPVTG,140.39,T,,M,15.95,N,29.56,K,A*32
$GPGGA,220529.000,4909.8085,N,12257.7251,W,1,8,1.08,14.2,M,-16.8,M,,*57
$GPGSA,A,3,11,32,21,27,10,08,01,24,,,,,1.73,1.08,1.35*00
$GPRMC,220529.000,A,4909.8085,N,12257.7251,W,8.34,136.26,180920,,,A*7C
$GPVTG,136.26,T,,M,8.34,N,15.46,K,A*04
$GPGGA,220530.000,4909.8077,N,12257.7229,W,1,8,1.07,14.1,M,-16.8,M,,*51
$GPGSA,A,3,11,32,21,27,10,08,01,24,,,,,1.34,1.07,0.80*03
$GPGSV,3,1,12,32,79,151,14,21,71,206,25,10,49,083,16,11,47,280,23*79
$GPGSV,3,2,12,01,31,309,28,51,31,159,,08,28,244,26,22,19,279,25*74
$GPGSV,3,3,12,20,16,097,,27,15,212,11,24,14,039,14,31,10,162,*7B
$GPRMC,220530.000,A,4909.8077,N,12257.7229,W,6.84,133.44,180920,,,A*72
$GPVTG,133.44,T,,M,6.84,N,12.68,K,A*0B
$GPGGA,220531.000,4909.8077,N,12257.7213,W,1,7,1.57,14.1,M,-16.8,M,,*53
$GPGSA,A,3,11,32,21,10,08,01,24,,,,,,2.62,1.57,2.10*08
$GPRMC,220531.000,A,4909.8077,N,12257.7213,W,4.43,119.77,180920,,,A*7B
$GPVTG,119.77,T,,M,4.43,N,8.21,K,A*3C
$GPGGA,220532.000,4909.8075,N,12257.7199,W,1,8,1.07,14.1,M,-16.8,M,,*59
$GPGSA,A,3,11,32,21,27,10,08,01,24,,,,,1.34,1.07,0.80*03
$GPRMC,220532.000,A,4909.8075,N,12257.7199,W,4.23,111.97,180920,,,A*7B
$GPVTG,111.97,T,,M,4.23,N,7.84,K,A*3C
$GPGGA,220533.000,4909.8070,N,12257.7187,W,1,8,1.07,14.0,M,-16.8,M,,*53
$GPGSA,A,3,11,32,21,27,10,08,01,24,,,,,1.34,1.07,0.80*03
$GPRMC,220533.000,A,4909.8070,N,12257.7187,W,4.54,118.50,180920,,,A*72
$GPVTG,118.50,T,,M,4.54,N,8.41,K,A*38
$GPGGA,220534.000,4909.8066,N,12257.7176,W,1,8,1.07,13.9,M,-16.8,M,,*53
$GPGSA,A,3,11,32,21,27,10,08,01,24,,,,,1.34,1.07,0.80*03
$GPRMC,220534.000,A,4909.8066,N,12257.7176,W,4.21,123.53,180920,,,A*75
$GPVTG,123.53,T,,M,4.21,N,7.81,K,A*32
$GPGGA,220535.000,4909.8058,N,12257.7164,W,1,7,1.57,13.8,M,-16.8,M,,*57
$GPGSA,A,3,11,32,21,10,08,01,24,,,,,,2.62,1.57,2.10*08
$GPGSV,3,1,12,32,79,151,13,21,71,205,23,10,49,083,16,11,47,280,23*7B
$GPGSV,3,2,12,01,31,309,29,51,31,159,,08,28,244,29,22,20,280,29*7A
$GPGSV,3,3,12,20,16,097,,27,15,212,,24,14,038,11,31,10,162,*7F
$GPRMC,220535.000,A,4909.8058,N,12257.7164,W,4.95,136.97,180920,,,A*79
$GPVTG,136.97,T,,M,4.95,N,9.17,K,A*30
$GPGGA,220536.000,4909.8045,N,12257.7128,W,1,9,0.91,12.8,M,-16.8,M,,*54
$GPGSA,A,3,11,32,21,10,08,31,01,24,20,,,,1.54,0.91,1.24*01
$GPRMC,220536.000,A,4909.8045,N,12257.7128,W,5.99,139.78,180920,,,A*7D
$GPVTG,139.78,T,,M,5.99,N,11.10,K,A*0D
$GPGGA,220537.000,4909.8035,N,12257.7111,W,1,9,0.91,12.5,M,-16.8,M,,*55
$GPGSA,A,3,11,32,21,10,08,31,01,24,20,,,,1.54,0.91,1.24*01
$GPRMC,220537.000,A,4909.8035,N,12257.7111,W,5.75,140.92,180920,,,A*79
$GPVTG,140.92,T,,M,5.75,N,10.65,K,A*06
$GPGGA,220538.000,4909.8023,N,12257.7099,W,1,9,0.90,12.4,M,-16.8,M,,*5C
$GPGSA,A,3,11,32,21,10,08,31,01,24,20,,,,1.19,0.90,0.78*01
$GPRMC,220538.000,A,4909.8023,N,12257.7099,W,6.00,145.03,180920,,,A*7C
$GPVTG,145.03,T,,M,6.00,N,11.12,K,A*0B
$GPGGA,220539.000,4909.8006,N,12257.7088,W,1,9,0.90,12.3,M,-16.8,M,,*5D
$GPGSA,A,3,11,32,21,10,08,31,01,24,20,,,,1.19,0.90,0.78*01
$GPRMC,220539.000,A,4909.8006,N,12257.7088,W,7.42,148.50,180920,,,A*76
$GPVTG,148.50,T,,M,7.42,N,13.76,K,A*07
$GPGGA,220540.000,4909.7987,N,12257.7072,W,1,9,0.90,12.2,M,-16.8,M,,*58
$GPGSA,A,3,11,32,21,10,08,31,01,24,20,,,,1.19,0.90,0.78*01
$GPGSV,3,1,12,32,79,151,14,21,71,205,22,10,49,083,16,11,47,280,26*78
$GPGSV,3,2,12,01,31,309,25,08,28,244,26,22,20,280,18,20,16,097,14*7E
$GPGSV,3,3,12,27,14,212,,24,14,038,16,31,10,162,14,34,,,*40
$GPRMC,220540.000,A,4909.7987,N,12257.7072,W,7.86,150.80,180920,,,A*7E
$GPVTG,150.80,T,,M,7.86,N,14.57,K,A*0F
$GPGGA,220541.000,4909.7966,N,12257.7060,W,1,9,0.90,12.3,M,-16.8,M,,*54
$GPGSA,A,3,11,32,21,10,08,31,01,24,20,,,,1.19,0.90,0.78*01
$GPRMC,220541.000,A,4909.7966,N,12257.7060,W,8.17,153.46,180920,,,A*7D
$GPVTG,153.46,T,,M,8.17,N,15.13,K,A*00
$GPGGA,220542.000,4909.7940,N,12257.7053,W,1,9,0.90,12.6,M,-16.8,M,,*56
$GPGSA,A,3,11,32,21,10,08,31,01,24,20,,,,1.19,0.90,0.78*01
$GPRMC,220542.000,A,4909.7940,N,12257.7053,W,8.93,156.82,180920,,,A*7B
$GPVTG,156.82,T,,M,8.93,N,16.55,K,A*00
$GPGGA,220543.000,4909.7911,N,12257.7051,W,1,9,0.90,12.9,M,-16.8,M,,*5E
$GPGSA,A,3,11,32,21,10,08,31,01,24,20,,,,1.19,0.90,0.78*01
$GPRMC,220543.000,A,4909.7911,N,12257.7051,W,9.85,160.13,180920,,,A*77
$GPVTG,160.13,T,,M,9.85,N,18.26,K,A*01
$GPGGA,220544.000,4909.7880,N,12257.7043,W,1,8,1.13,13.2,M,-16.8,M,,*52
$GPGSA,A,3,11,32,21,10,08,01,24,20,,,,,1.41,1.13,0.84*07
$GPRMC,220544.000,A,4909.7880,N,12257.7043,W,10.58,159.28,180920,,,A*40
$GPVTG,159.28,T,,M,10.58,N,19.61,K,A*39
$GPGGA,220545.000,4909.7842,N,12257.7033,W,1,8,1.13,13.3,M,-16.8,M,,*5B
$GPGSA,A,3,11,32,21,10,08,01,24,20,,,,,1.41,1.13,0.84*07
$GPGSV,3,1,12,32,79,150,17,21,71,205,17,10,49,083,15,11,47,280,29*70
$GPGSV,3,2,12,01,31,309,15,08,28,244,18,22,20,280,,20,16,097,14*79
$GPGSV,3,3,12,27,14,212,,24,14,038,16,31,11,161,,35,,,*46
$GPRMC,220545.000,A,4909.7842,N,12257.7033,W,11.67,163.53,180920,,,A*40
$GPVTG,163.53,T,,M,11.67,N,21.63,K,A*38
$GPGGA,220546.000,4909.7805,N,12257.7028,W,1,8,1.13,13.5,M,-16.8,M,,*57
$GPGSA,A,3,11,32,21,10,08,01,24,20,,,,,1.41,1.13,0.84*07
