$GPGGA,190516.000,4913.4996,N,12249.3936,W,1,6,1.42,20.5,M,-16.7,M,,*51
$GPGSA,A,3,20,27,10,15,08,16,,,,,,,1.70,1.42,0.92*05
$GPGSV,3,1,12,20,88,221,14,18,61,093,,10,51,234,20,27,43,303,25*7D
$GPGSV,3,2,12,15,39,067,19,44,33,172,,16,24,262,14,21,21,290,*71
$GPGSV,3,3,12,13,18,040,,08,13,319,17,29,08,153,,26,08,231,*7A
$GPRMC,190516.000,A,4913.4996,N,12249.3936,W,2.78,31.15,180920,,,A*41
$GPVTG,31.15,T,,M,2.78,N,5.14,K,A*06
$GPGGA,190517.000,4913.4982,N,12249.3921,W,1,6,1.42,7.8,M,-16.7,M,,*6B
$GPGSA,A,3,20,27,10,15,08,16,,,,,,,1.70,1.42,0.92*05
$GPRMC,190517.000,A,4913.4982,N,12249.3921,W,1.87,72.95,180920,,,A*4F
$GPVTG,72.95,T,,M,1.87,N,3.46,K,A*0B
$GPGGA,190518.000,4913.5062,N,12249.3907,W,1,6,1.42,37.1,M,-16.7,M,,*5C
$GPGSA,A,3,20,27,10,15,08,16,,,,,,,1.70,1.42,0.92*05
$GPRMC,190518.000,A,4913.5062,N,12249.3907,W,1.67,122.11,180920,,,A*74
$GPVTG,122.11,T,,M,1.67,N,3.10,K,A*3E
$GPGGA,190519.000,,,,,0,6,,,M,,M,,*4B
$GPGSA,A,1,,,,,,,,,,,,,,,*1E
$GPRMC,190519.000,V,,,,,1.19,125.90,180920,,,N*4C
$GPVTG,125.90,T,,M,1.19,N,2.20,K,N*34
$GPGGA,190520.000,4913.5128,N,12249.4100,W,1,6,1.43,9.3,M,-16.7,M,,*6E
$GPGSA,A,3,20,27,10,15,08,16,,,,,,,1.70,1.43,0.92*04
$GPRMC,190520.000,A,4913.5128,N,12249.4100,W,0.75,109.10,180920,,,A*72
$GPVTG,109.10,T,,M,0.75,N,1.38,K,A*3C
$GPGGA,190521.000,4913.5036,N,12249.4039,W,1,6,1.43,9.3,M,-16.7,M,,*6A
$GPGSA,A,3,20,27,10,15,08,16,,,,,,,1.70,1.43,0.92*04
$GPGSV,3,1,12,20,88,221,17,18,60,093,,10,51,234,20,27,43,303,26*7C
$GPGSV,3,2,12,15,39,067,19,46,33,188,,16,24,262,17,21,21,290,*75
$GPGSV,3,3,12,13,18,040,,08,13,319,16,29,08,153,,26,08,231,*7B
$GPRMC,190521.000,A,4913.5036,N,12249.4039,W,0.34,109.10,180920,,,A*73
$GPVTG,109.10,T,,M,0.34,N,0.64,K,A*31
$GPGGA,190522.000,4913.5021,N,12249.4034,W,1,6,1.43,11.9,M,-16.7,M,,*51
$GPGSA,A,3,20,27,10,15,08,16,,,,,,,1.70,1.43,0.92*04
$GPRMC,190522.000,A,4913.5021,N,12249.4034,W,0.88,307.24,180920,,,A*77
$GPVTG,307.24,T,,M,0.88,N,1.64,K,A*3C
$GPGGA,190523.000,4913.5010,N,12249.4051,W,1,6,1.43,9.9,M,-16.7,M,,*68
$GPGSA,A,3,20,27,10,15,08,16,,,,,,,1.70,1.43,0.92*04
$GPRMC,190523.000,A,4913.5010,N,12249.4051,W,0.95,218.64,180920,,,A*70
$GPVTG,218.64,T,,M,0.95,N,1.75,K,A*3B
$GPGGA,190524.000,,,,,0,6,,,M,,M,,*45
$GPGSA,A,1,,,,,,,,,,,,,,,*1E
$GPRMC,190524.000,V,,,,,2.69,164.91,180920,,,N*42
$GPVTG,164.91,T,,M,2.69,N,4.99,K,N*30
$GPGGA,190525.000,4913.4975,N,12249.4004,W,1,6,1.43,8.2,M,-16.7,M,,*6F
$GPGSA,A,3,20,27,10,15,08,16,,,,,,,1.70,1.43,0.92*04
$GPRMC,190525.000,A,4913.4975,N,12249.4004,W,2.02,139.28,180920,,,A*79
$GPVTG,139.28,T,,M,2.02,N,3.74,K,A*3C
$GPGGA,190526.000,4913.5006,N,12249.4034,W,1,5,1.56,9.0,M,-16.7,M,,*67
$GPGSA,A,3,20,27,10,15,08,,,,,,,,1.83,1.56,0.95*0C
$GPGSV,3,1,12,20,88,221,17,18,60,093,,10,51,234,21,27,43,303,28*73
$GPGSV,3,2,12,15,39,067,22,48,32,193,,16,24,262,,21,21,290,*7E
$GPGSV,3,3,12,13,18,040,,08,13,319,17,29,08,153,,26,08,231,*7A
$GPRMC,190526.000,A,4913.5006,N,12249.4034,W,0.66,159.53,180920,,,A*7F
$GPVTG,159.53,T,,M,0.66,N,1.22,K,A*37
$GPGGA,190527.000,4913.5078,N,12249.4039,W,1,5,1.56,41.3,M,-16.7,M,,*5D
$GPGSA,A,3,20,27,10,15,08,,,,,,,,1.83,1.56,0.95*0C
$GPRMC,190527.000,A,4913.5078,N,12249.4039,W,1.42,110.11,180920,,,A*76
$GPVTG,110.11,T,,M,1.42,N,2.62,K,A*3C
$GPGGA,190528.000,,,,,0,5,,,M,,M,,*4A
$GPGSA,A,1,,,,,,,,,,,,,,,*1E
$GPRMC,190528.000,V,,,,,3.11,118.59,180920,,,N*4F
$GPVTG,118.59,T,,M,3.11,N,5.76,K,N*31
$GPGGA,190529.000,4913.5075,N,12249.4080,W,1,5,1.56,11.1,M,-16.7,M,,*5B
$GPGSA,A,3,20,27,10,15,08,,,,,,,,1.83,1.56,0.95*0C
$GPRMC,190529.000,A,4913.5075,N,12249.4080,W,1.44,140.37,180920,,,A*70
$GPVTG,140.37,T,,M,1.44,N,2.67,K,A*3E
$GPGGA,190530.000,4913.4995,N,12249.3999,W,1,5,1.57,10.3,M,-16.7,M,,*51
$GPGSA,A,3,20,27,10,15,08,,,,,,,,1.83,1.57,0.95*0D
$GPRMC,190530.000,A,4913.4995,N,12249.3999,W,1.67,13.53,180920,,,A*4C
$GPVTG,13.53,T,,M,1.67,N,3.09,K,A*03
$GPGGA,190531.000,4913.5041,N,12249.4029,W,1,5,1.57,27.9,M,-16.7,M,,*5A
$GPGSA,A,3,20,27,10,15,08,,,,,,,,1.83,1.57,0.95*0D
$GPGSV,3,1,11,20,88,221,18,18,60,093,,10,51,234,23,27,43,303,30*74
$GPGSV,3,2,11,15,39,067,25,16,24,262,,21,21,290,,13,18,040,*73
$GPGSV,3,3,11,08,13,319,18,29,08,153,,26,08,230,*48
$GPRMC,190531.000,A,4913.5041,N,12249.4029,W,0.42,13.53,180920,,,A*4F
$GPVTG,13.53,T,,M,0.42,N,0.78,K,A*00
$GPGGA,190532.000,4913.5039,N,12249.4028,W,1,5,1.57,34.3,M,-16.7,M,,*5F
$GPGSA,A,3,20,27,10,15,08,,,,,,,,1.83,1.57,0.95*0D
$GPRMC,190532.000,A,4913.5039,N,12249.4028,W,1.01,57.76,180920,,,A*43
$GPVTG,57.76,T,,M,1.01,N,1.88,K,A*0F
$GPGGA,190533.000,4913.5025,N,12249.4041,W,1,5,1.57,35.6,M,-16.7,M,,*58
$GPGSA,A,3,20,27,10,15,08,,,,,,,,1.83,1.57,0.95*0D
$GPRMC,190533.000,A,4913.5025,N,12249.4041,W,0.57,57.76,180920,,,A*42
$GPVTG,57.76,T,,M,0.57,N,1.05,K,A*08
$GPGGA,190534.000,,,,,0,5,,,M,,M,,*47
$GPGSA,A,1,,,,,,,,,,,,,,,*1E
$GPRMC,190534.000,V,,,,,0.64,289.76,180920,,,N*45
$GPVTG,289.76,T,,M,0.64,N,1.19,K,N*3B
$GPGGA,190535.000,4913.5009,N,12249.4088,W,1,5,1.57,11.0,M,-16.7,M,,*55
$GPGSA,A,3,20,27,10,15,08,,,,,,,,1.83,1.57,0.95*0D
$GPRMC,190535.000,A,4913.5009,N,12249.4088,W,0.90,352.86,180920,,,A*7D
$GPVTG,352.86,T,,M,0.90,N,1.67,K,A*3E
$GPGGA,190536.000,4913.4964,N,12249.4052,W,1,5,1.57,10.4,M,-16.7,M,,*57
$GPGSA,A,3,20,27,10,15,08,,,,,,,,1.83,1.57,0.95*0D
$GPGSV,3,1,11,20,88,221,18,18,60,093,,10,51,234,22,27,43,303,30*75
$GPGSV,3,2,11,15,39,067,24,16,24,262,,21,21,290,,13,18,040,*72
$GPGSV,3,3,11,08,13,319,18,29,08,153,,26,08,230,*48
$GPRMC,190536.000,A,4913.4964,N,12249.4052,W,0.88,78.18,180920,,,A*4F
$GPVTG,78.18,T,,M,0.88,N,1.63,K,A*0F
$GPGGA,190537.000,4913.5042,N,12249.4082,W,1,5,1.57,43.0,M,-16.7,M,,*55
$GPGSA,A,3,20,27,10,15,08,,,,,,,,1.83,1.57,0.95*0D
$GPRMC,190537.000,A,4913.5042,N,12249.4082,W,2.14,1.91,180920,,,A*77
$GPVTG,1.91,T,,M,2.14,N,3.96,K,A*3F
$GPGGA,190538.000,4913.5073,N,12249.4076,W,1,5,1.57,45.2,M,-16.7,M,,*57
$GPGSA,A,3,20,27,10,15,08,,,,,,,,1.83,1.57,0.95*0D
$GPRMC,190538.000,A,4913.5073,N,12249.4076,W,0.69,117.24,180920,,,A*71
$GPVTG,117.24,T,,M,0.69,N,1.29,K,A*39
$GPGGA,190539.000,4913.5046,N,12249.4065,W,1,5,1.57,35.9,M,-16.7,M,,*5E
$GPGSA,A,3,20,27,10,15,08,,,,,,,,1.83,1.57,0.95*0D
$GPRMC,190539.000,A,4913.5046,N,12249.4065,W,0.28,117.24,180920,,,A*71
$GPVTG,117.24,T,,M,0.28,N,0.52,K,A*31
$GPGGA,190540.000,4913.5036,N,12249.4061,W,1,5,1.57,34.3,M,-16.7,M,,*58
$GPGSA,A,3,20,27,10,15,08,,,,,,,,1.83,1.57,0.95*0D
$GPRMC,190540.000,A,4913.5036,N,12249.4061,W,0.08,117.24,180920,,,A*7E
$GPVTG,117.24,T,,M,0.08,N,0.14,K,A*31
$GPGGA,190541.000,4913.4989,N,12249.4058,W,1,5,1.57,-19.2,M,-16.7,M,,*7C
$GPGSA,A,3,20,27,10,15,08,,,,,,,,1.83,1.57,0.95*0D
$GPGSV,3,1,11,20,88,221,16,18,60,093,,10,51,234,27,27,43,303,29*76
$GPGSV,3,2,11,15,39,067,24,16,24,262,,21,21,290,,13,18,040,*72
$GPGSV,3,3,11,08,13,319,13,29,08,153,,26,08,230,*43
$GPRMC,190541.000,A,4913.4989,N,12249.4058,W,1.02,168.96,180920,,,A*73
$GPVTG,168.96,T,,M,1.02,N,1.89,K,A*3E
$GPGGA,190542.000,4913.4983,N,12249.4065,W,1,6,1.43,-19.0,M,-16.7,M,,*7F
$GPGSA,A,3,20,27,10,15,08,16,,,,,,,1.70,1.43,0.92*04
$GPRMC,190542.000,A,4913.4983,N,12249.4065,W,1.38,150.22,180920,,,A*79
$GPVTG,150.22,T,,M,1.38,N,2.55,K,A*31
$GPGGA,190543.000,4913.4980,N,12249.4060,W,1,6,1.43,-14.9,M,-16.7,M,,*7C
$GPGSA,A,3,20,27,10,15,08,16,,,,,,,1.70,1.43,0.92*04
$GPRMC,190543.000,A,4913.4980,N,12249.4060,W,0.78,150.94,180920,,,A*76
$GPVTG,150.94,T,,M,0.78,N,1.44,K,A*3A
$GPGGA,190544.000,4913.4973,N,12249.4057,W,1,6,1.43,-11.4,M,-16.7,M,,*7B
$GPGSA,A,3,20,27,10,15,08,16,,,,,,,1.70,1.43,0.92*04
$GPRMC,190544.000,A,4913.4973,N,12249.4057,W,1.45,170.66,180920,,,A*79
$GPVTG,170.66,T,,M,1.45,N,2.68,K,A*37
$GPGGA,190545.000,4913.4961,N,12249.4054,W,1,6,1.43,-8.3,M,-16.7,M,,*45
$GPGSA,A,3,20,27,10,15,08,16,,,,,,,1.70,1.43,0.92*04
$GPRMC,190545.000,A,4913.4961,N,12249.4054,W,2.71,167.18,180920,,,A*73
$GPVTG,167.18,T,,M,2.71,N,5.02,K,A*37
$GPGGA,190546.000,4913.4952,N,12249.4050,W,1,6,1.43,-5.5,M,-16.7,M,,*49
$GPGSA,A,3,20,27,10,15,08,16,,,,,,,1.70,1.43,0.92*04
$GPGSV,3,1,12,20,88,221,17,18,60,093,,10,52,235,23,27,43,303,28*73
$GPGSV,3,2,12,15,39,067,23,51,31,159,,16,24,262,19,21,21,290,*7A
$GPGSV,3,3,12,13,18,040,,08,13,319,16,29,08,153,,26,08,230,*7A
$GPRMC,190546.000,A,4913.4952,N,12249.4050,W,2.95,164.21,180920,,,A*77
$GPVTG,164.21,T,,M,2.95,N,5.46,K,A*34
$GPGGA,190547.000,4913.4939,N,12249.4039,W,1,6,1.43,-3.0,M,-16.7,M,,*49
$GPGSA,A,3,20,27,10,15,08,16,,,,,,,1.70,1.43,0.92*04
$GPRMC,190547.000,A,4913.4939,N,12249.4039,W,3.68,156.10,180920,,,A*74
$GPVTG,156.10,T,,M,3.68,N,6.82,K,A*3F
$GPGGA,190548.000,4913.4929,N,12249.4034,W,1,6,1.43,-0.8,M,-16.7,M,,*41
$GPGSA,A,3,20,27,10,15,08,16,,,,,,,1.70,1.43,0.92*04
$GPRMC,190548.000,A,4913.4929,N,12249.4034,W,4.07,160.01,180920,,,A*7C
$GPVTG,160.01,T,,M,4.07,N,7.54,K,A*3E
$GPGGA,190549.000,4913.4922,N,12249.4022,W,1,6,1.43,1.3,M,-16.7,M,,*6B
$GPGSA,A,3,20,27,10,15,08,16,,,,,,,1.70,1.43,0.92*04
$GPRMC,190549.000,A,4913.4922,N,12249.4022,W,4.14,150.22,180920,,,A*71
$GPVTG,150.22,T,,M,4.14,N,7.68,K,A*31
$GPGGA,190550.000,4913.4917,N,12249.4012,W,1,6,1.43,3.1,M,-16.7,M,,*66
$GPGSA,A,3,20,27,10,15,08,16,,,,,,,1.70,1.43,0.92*04
$GPRMC,190550.000,A,4913.4917,N,12249.4012,W,4.11,139.66,180920,,,A*76
$GPVTG,139.66,T,,M,4.11,N,7.62,K,A*31
$GPGGA,190551.000,4913.4909,N,12249.3999,W,1,6,1.43,4.9,M,-16.7,M,,*6A
$GPGSA,A,3,20,27,10,15,08,16,,,,,,,1.70,1.43,0.92*04
$GPGSV,3,1,12,20,88,221,17,18,60,093,,10,52,235,28,27,43,303,25*75
$GPGSV,3,2,12,15,39,066,18,51,31,159,,16,24,262,21,21,21,290,*78
$GPGSV,3,3,12,13,18,039,,08,13,319,15,29,08,153,,26,08,230,*77
$GPRMC,190551.000,A,4913.4909,N,12249.3999,W,4.08,144.58,180920,,,A*7A
$GPVTG,144.58,T,,M,4.08,N,7.56,K,A*39
$GPGGA,190552.000,4913.4908,N,12249.3994,W,1,6,1.43,6.4,M,-16.7,M,,*6A
$GPGSA,A,3,20,27,10,15,08,16,,,,,,,1.70,1.43,0.92*04
$GPRMC,190552.000,A,4913.4908,N,12249.3994,W,3.45,126.79,180920,,,A*7C
$GPVTG,126.79,T,,M,3.45,N,6.38,K,A*39
$GPGGA,190553.000,4913.4901,N,12249.3984,W,1,6,1.43,6.9,M,-16.7,M,,*6E
$GPGSA,A,3,20,27,10,15,08,16,,,,,,,1.70,1.43,0.92*04
$GPRMC,190553.000,A,4913.4901,N,12249.3984,W,3.74,124.93,180920,,,A*71
$GPVTG,124.93,T,,M,3.74,N,6.93,K,A*3C
$GPGGA,190554.000,4913.4897,N,12249.3963,W,1,6,1.71,7.9,M,-16.7,M,,*6E
$GPGSA,A,3,20,27,10,15,21,16,,,,,,,1.95,1.71,0.92*05
$GPRMC,190554.000,A,4913.4897,N,12249.3963,W,3.74,119.33,180920,,,A*75
$GPVTG,119.33,T,,M,3.74,N,6.93,K,A*38
$GPGGA,190555.000,4913.4894,N,12249.3942,W,1,6,1.71,8.8,M,-16.7,M,,*61
$GPGSA,A,3,20,27,10,15,21,16,,,,,,,1.95,1.71,0.92*05
$GPRMC,190555.000,A,4913.4894,N,12249.3942,W,3.92,107.04,180920,,,A*77
$GPVTG,107.04,T,,M,3.92,N,7.26,K,A*34
$GPGGA,190556.000,4913.4887,N,12249.3916,W,1,6,1.71,9.6,M,-16.7,M,,*6E
$GPGSA,A,3,20,27,10,15,21,16,,,,,,,1.95,1.71,0.92*05
$GPGSV,3,1,12,20,88,219,18,18,60,093,,10,52,235,29,27,43,303,25*70
$GPGSV,3,2,12,15,39,066,18,44,33,172,,16,24,262,18,21,21,290,27*78
$GPGSV,3,3,12,13,18,039,,08,13,319,20,29,08,153,,26,08,230,*71
$GPRMC,190556.000,A,4913.4887,N,12249.3916,W,4.84,108.53,180920,,,A*7A
$GPVTG,108.53,T,,M,4.84,N,8.96,K,A*3D
$GPGGA,190557.000,4913.4880,N,12249.3890,W,1,6,1.72,10.2,M,-16.7,M,,*58
$GPGSA,A,3,20,27,10,15,21,16,,,,,,,1.95,1.72,0.92*06
$GPRMC,190557.000,A,4913.4880,N,12249.3890,W,5.26,105.85,180920,,,A*7C
$GPVTG,105.85,T,,M,5.26,N,9.75,K,A*3E
$GPGGA,190558.000,4913.4869,N,12249.3879,W,1,6,1.72,10.8,M,-16.7,M,,*5D
$GPGSA,A,3,20,27,10,15,21,16,,,,,,,1.95,1.72,0.92*06
$GPRMC,190558.000,A,4913.4869,N,12249.3879,W,4.99,104.84,180920,,,A*76
$GPVTG,104.84,T,,M,4.99,N,9.24,K,A*3F
$GPGGA,190559.000,4913.4862,N,12249.3866,W,1,6,1.97,11.2,M,-16.7,M,,*59
$GPGSA,A,3,20,27,10,08,21,16,,,,,,,2.19,1.97,0.97*03
$GPRMC,190559.000,A,4913.4862,N,12249.3866,W,4.70,105.38,180920,,,A*73
$GPVTG,105.38,T,,M,4.70,N,8.71,K,A*3F
$GPGGA,190600.000,4913.4857,N,12249.3830,W,1,6,1.43,11.6,M,-16.7,M,,*5E
$GPGSA,A,3,20,27,10,15,08,16,,,,,,,1.70,1.43,0.92*04
$GPRMC,190600.000,A,4913.4857,N,12249.3830,W,5.26,99.43,180920,,,A*43
$GPVTG,99.43,T,,M,5.26,N,9.75,K,A*00
$GPGGA,190601.000,4913.4848,N,12249.3818,W,1,5,2.08,11.9,M,-16.7,M,,*5B
$GPGSA,A,3,20,27,10,08,16,,,,,,,,2.29,2.08,0.97*06
$GPGSV,3,1,12,20,88,219,20,18,60,093,,10,52,235,28,27,43,303,32*7C
$GPGSV,3,2,12,15,39,066,,44,33,172,,16,24,262,16,21,21,290,*7A
$GPGSV,3,3,12,13,18,039,,08,13,319,17,29,08,153,,26,08,230,*75
$GPRMC,190601.000,A,4913.4848,N,12249.3818,W,5.09,99.69,180920,,,A*43
$GPVTG,99.69,T,,M,5.09,N,9.43,K,A*00
$GPGGA,190602.000,4913.4842,N,12249.3811,W,1,5,2.07,12.1,M,-16.7,M,,*5F
$GPGSA,A,3,20,27,10,08,16,,,,,,,,2.29,2.07,0.97*09
$GPRMC,190602.000,A,4913.4842,N,12249.3811,W,5.12,98.22,180920,,,A*47
$GPVTG,98.22,T,,M,5.12,N,9.48,K,A*0F
$GPGGA,190603.000,4913.4830,N,12249.3803,W,1,5,2.08,12.2,M,-16.7,M,,*54
$GPGSA,A,3,20,27,10,08,16,,,,,,,,2.29,2.08,0.97*06
$GPRMC,190603.000,A,4913.4830,N,12249.3803,W,5.57,107.72,180920,,,A*73
$GPVTG,107.72,T,,M,5.57,N,10.32,K,A*09
$GPGGA,190604.000,4913.4821,N,12249.3800,W,1,5,2.07,12.3,M,-16.7,M,,*5E
$GPGSA,A,3,20,27,10,08,16,,,,,,,,2.29,2.07,0.97*09
$GPRMC,190604.000,A,4913.4821,N,12249.3800,W,4.61,109.51,180920,,,A*7C
$GPVTG,109.51,T,,M,4.61,N,8.53,K,A*3C
$GPGGA,190605.000,4913.4818,N,12249.3783,W,1,5,2.08,12.3,M,-16.7,M,,*5E
$GPGSA,A,3,20,27,10,08,16,,,,,,,,2.29,2.08,0.97*06
$GPRMC,190605.000,A,4913.4818,N,12249.3783,W,4.84,104.76,180920,,,A*70
$GPVTG,104.76,T,,M,4.84,N,8.96,K,A*36
$GPGGA,190606.000,4913.4813,N,12249.3777,W,1,5,2.07,12.3,M,-16.7,M,,*52
$GPGSA,A,3,20,27,10,08,16,,,,,,,,2.29,2.07,0.97*09
$GPGSV,3,1,11,20,88,219,20,18,60,093,,10,52,235,24,27,43,302,30*70
$GPGSV,3,2,11,15,39,066,,16,24,262,20,21,21,290,,13,18,039,*79
$GPGSV,3,3,11,08,13,319,19,26,08,230,,29,07,153,*46
$GPRMC,190606.000,A,4913.4813,N,12249.3777,W,5.11,103.55,180920,,,A*78
$GPVTG,103.55,T,,M,5.11,N,9.46,K,A*31
$GPGGA,190607.000,4913.4812,N,12249.3765,W,1,5,2.07,12.3,M,-16.7,M,,*51
$GPGSA,A,3,20,27,10,08,16,,,,,,,,2.29,2.07,0.97*09
$GPRMC,190607.000,A,4913.4812,N,12249.3765,W,5.32,98.23,180920,,,A*48
$GPVTG,98.23,T,,M,5.32,N,9.85,K,A*0D
$GPGGA,190608.000,4913.4809,N,12249.3754,W,1,5,2.08,12.3,M,-16.7,M,,*59
$GPGSA,A,3,20,27,10,08,16,,,,,,,,2.29,2.08,0.97*06
$GPRMC,190608.000,A,4913.4809,N,12249.3754,W,5.26,96.39,180920,,,A*4F
$GPVTG,96.39,T,,M,5.26,N,9.76,K,A*01
$GPGGA,190609.000,4913.4807,N,12249.3741,W,1,5,2.07,12.2,M,-16.7,M,,*5C
$GPGSA,A,3,20,27,10,08,16,,,,,,,,2.29,2.07,0.97*09
$GPRMC,190609.000,A,4913.4807,N,12249.3741,W,5.54,94.55,180920,,,A*49
$GPVTG,94.55,T,,M,5.54,N,10.26,K,A*31
$GPGGA,190610.000,4913.4808,N,12249.3722,W,1,5,2.07,12.1,M,-16.7,M,,*5D
$GPGSA,A,3,20,27,10,08,16,,,,,,,,2.29,2.07,0.97*09
$GPRMC,190610.000,A,4913.4808,N,12249.3722,W,5.59,90.19,180920,,,A*4A
$GPVTG,90.19,T,,M,5.59,N,10.36,K,A*31
$GPGGA,190611.000,4913.4808,N,12249.3703,W,1,5,2.07,11.9,M,-16.7,M,,*54
$GPGSA,A,3,20,27,10,08,16,,,,,,,,2.29,2.07,0.97*09
$GPGSV,3,1,11,20,88,219,20,18,60,093,,10,52,235,21,27,43,302,22*76
$GPGSV,3,2,11,15,39,066,,16,24,262,17,21,21,290,,13,18,039,*7D
$GPGSV,3,3,11,08,13,319,18,26,08,230,,29,07,153,*47
$GPRMC,190611.000,A,4913.4808,N,12249.3703,W,5.91,87.67,180920,,,A*43
$GPVTG,87.67,T,,M,5.91,N,10.96,K,A*30
$GPGGA,190612.000,4913.4811,N,12249.3681,W,1,5,2.07,11.8,M,-16.7,M,,*55
$GPGSA,A,3,20,27,10,08,16,,,,,,,,2.29,2.07,0.97*09
$GPRMC,190612.000,A,4913.4811,N,12249.3681,W,6.08,85.71,180920,,,A*45
$GPVTG,85.71,T,,M,6.08,N,11.26,K,A*3C
$GPGGA,190613.000,4913.4816,N,12249.3656,W,1,5,2.07,11.7,M,-16.7,M,,*56
$GPGSA,A,3,20,27,10,08,16,,,,,,,,2.29,2.07,0.97*09
$GPRMC,190613.000,A,4913.4816,N,12249.3656,W,6.54,80.36,180920,,,A*46
$GPVTG,80.36,T,,M,6.54,N,12.12,K,A*37
$GPGGA,190614.000,4913.4814,N,12249.3627,W,1,5,2.07,11.5,M,-16.7,M,,*57
$GPGSA,A,3,20,27,10,08,16,,,,,,,,2.29,2.07,0.97*09
$GPRMC,190614.000,A,4913.4814,N,12249.3627,W,6.79,86.80,180920,,,A*41
$GPVTG,86.80,T,,M,6.79,N,12.58,K,A*3D
$GPGGA,190615.000,4913.4815,N,12249.3604,W,1,5,2.07,11.3,M,-16.7,M,,*50
$GPGSA,A,3,20,27,10,08,16,,,,,,,,2.29,2.07,0.97*09
$GPRMC,190615.000,A,4913.4815,N,12249.3604,W,7.04,87.88,180920,,,A*42
$GPVTG,87.88,T,,M,7.04,N,13.05,K,A*36
$GPGGA,190616.000,4913.4814,N,12249.3585,W,1,5,2.07,11.2,M,-16.7,M,,*59
$GPGSA,A,3,20,27,10,08,16,,,,,,,,2.29,2.07,0.97*09
$GPGSV,3,1,11,20,88,219,17,18,60,093,,10,52,235,20,27,43,302,24*75
$GPGSV,3,2,11,15,39,066,,16,24,262,17,21,21,290,,13,18,039,*7D
$GPGSV,3,3,11,08,13,319,13,26,08,230,,29,07,153,*4C
$GPRMC,190616.000,A,4913.4814,N,12249.3585,W,7.08,91.11,180920,,,A*41
$GPVTG,91.11,T,,M,7.08,N,13.13,K,A*3A
$GPGGA,190617.000,4913.4812,N,12249.3556,W,1,5,2.07,11.3,M,-16.7,M,,*51
$GPGSA,A,3,20,27,10,08,16,,,,,,,,2.29,2.07,0.97*09
$GPRMC,190617.000,A,4913.4812,N,12249.3556,W,7.60,93.56,180920,,,A*47
$GPVTG,93.56,T,,M,7.60,N,14.08,K,A*38
$GPGGA,190618.000,4913.4819,N,12249.3534,W,1,5,2.07,11.4,M,-16.7,M,,*56
$GPGSA,A,3,20,27,10,08,16,,,,,,,,2.29,2.07,0.97*09
$GPRMC,190618.000,A,4913.4819,N,12249.3534,W,7.09,84.21,180920,,,A*4E
$GPVTG,84.21,T,,M,7.09,N,13.14,K,A*3B
$GPGGA,190619.000,4913.4820,N,12249.3523,W,1,6,1.46,11.6,M,-16.7,M,,*5C
$GPGSA,A,3,20,27,10,08,13,16,,,,,,,1.72,1.46,0.91*06
$GPRMC,190619.000,A,4913.4820,N,12249.3523,W,6.67,85.21,180920,,,A*4B
$GPVTG,85.21,T,,M,6.67,N,12.36,K,A*32
$GPGGA,190620.000,4913.4821,N,12249.3509,W,1,6,1.46,11.7,M,-16.7,M,,*5E
$GPGSA,A,3,20,27,10,08,13,16,,,,,,,1.72,1.46,0.91*06
$GPRMC,190620.000,A,4913.4821,N,12249.3509,W,6.04,85.81,180920,,,A*47
$GPVTG,85.81,T,,M,6.04,N,11.20,K,A*39
$GPGGA,190621.000,4913.4821,N,12249.3497,W,1,6,1.46,11.8,M,-16.7,M,,*56
$GPGSA,A,3,20,27,10,08,13,16,,,,,,,1.72,1.46,0.91*06
$GPGSV,3,1,11,20,88,219,18,18,60,093,,10,52,235,21,27,43,302,24*7B
$GPGSV,3,2,11,15,39,066,,16,24,262,15,21,21,290,,13,18,039,19*77
$GPGSV,3,3,11,08,13,319,15,26,08,230,,29,07,153,*4A
$GPRMC,190621.000,A,4913.4821,N,12249.3497,W,5.41,87.16,180920,,,A*4E
$GPVTG,87.16,T,,M,5.41,N,10.03,K,A*37
$GPGGA,190622.000,4913.4824,N,12249.3481,W,1,6,1.46,12.0,M,-16.7,M,,*5C
$GPGSA,A,3,20,27,10,08,13,16,,,,,,,1.72,1.46,0.91*06
$GPRMC,190622.000,A,4913.4824,N,12249.3481,W,5.26,83.39,180920,,,A*47
$GPVTG,83.39,T,,M,5.26,N,9.74,K,A*07
$GPGGA,190623.000,4913.4830,N,12249.3463,W,1,6,1.46,12.1,M,-16.7,M,,*55
$GPGSA,A,3,20,27,10,08,13,16,,,,,,,1.72,1.46,0.91*06
$GPRMC,190623.000,A,4913.4830,N,12249.3463,W,5.41,77.82,180920,,,A*45
$GPVTG,77.82,T,,M,5.41,N,10.03,K,A*35
$GPGGA,190624.000,4913.4830,N,12249.3445,W,1,6,1.46,12.2,M,-16.7,M,,*55
$GPGSA,A,3,20,27,10,08,13,16,,,,,,,1.72,1.46,0.91*06
$GPRMC,190624.000,A,4913.4830,N,12249.3445,W,5.34,82.30,180920,,,A*47
$GPVTG,82.30,T,,M,5.34,N,9.90,K,A*06
$GPGGA,190625.000,4913.4834,N,12249.3428,W,1,6,1.46,12.4,M,-16.7,M,,*5D
$GPGSA,A,3,20,27,10,08,13,16,,,,,,,1.72,1.46,0.91*06
$GPRMC,190625.000,A,4913.4834,N,12249.3428,W,5.05,79.81,180920,,,A*45
$GPVTG,79.81,T,,M,5.05,N,9.35,K,A*05
$GPGGA,190626.000,4913.4841,N,12249.3413,W,1,6,1.46,12.5,M,-16.7,M,,*55
$GPGSA,A,3,20,27,10,08,13,16,,,,,,,1.72,1.46,0.91*06
$GPGSV,3,1,12,20,88,219,16,18,60,093,,10,52,235,24,27,43,302,24*73
$GPGSV,3,2,12,15,39,066,,46,33,188,,16,24,262,12,21,21,290,*79
$GPGSV,3,3,12,13,18,039,15,08,13,319,15,26,08,230,,29,07,153,*7C
$GPRMC,190626.000,A,4913.4841,N,12249.3413,W,4.66,72.68,180920,,,A*44
$GPVTG,72.68,T,,M,4.66,N,8.64,K,A*08
$GPGGA,190627.000,4913.4857,N,12249.3395,W,1,6,1.46,12.6,M,-16.7,M,,*59
$GPGSA,A,3,20,27,10,08,13,16,,,,,,,1.72,1.46,0.91*06
$GPRMC,190627.000,A,4913.4857,N,12249.3395,W,5.86,59.65,180920,,,A*40
$GPVTG,59.65,T,,M,5.86,N,10.86,K,A*36
$GPGGA,190628.000,4913.4871,N,12249.3372,W,1,6,1.46,12.8,M,-16.7,M,,*55
$GPGSA,A,3,20,27,10,08,13,16,,,,,,,1.72,1.46,0.91*06
$GPRMC,190628.000,A,4913.4871,N,12249.3372,W,6.91,56.42,180920,,,A*4D
$GPVTG,56.42,T,,M,6.91,N,12.80,K,A*3D
$GPGGA,190629.000,4913.4902,N,12249.3368,W,1,6,1.60,12.9,M,-16.7,M,,*5F
$GPGSA,A,3,20,27,10,13,18,16,,,,,,,1.83,1.60,0.91*0D
$GPRMC,190629.000,A,4913.4902,N,12249.3368,W,6.98,45.68,180920,,,A*41
$GPVTG,45.68,T,,M,6.98,N,12.93,K,A*3C
$GPGGA,190630.000,4913.4916,N,12249.3355,W,1,6,1.60,13.0,M,-16.7,M,,*54
$GPGSA,A,3,20,27,10,13,18,16,,,,,,,1.84,1.60,0.91*0A
$GPRMC,190630.000,A,4913.4916,N,12249.3355,W,6.54,30.44,180920,,,A*4E
$GPVTG,30.44,T,,M,6.54,N,12.12,K,A*39
$GPGGA,190631.000,4913.4937,N,12249.3351,W,1,6,1.60,13.2,M,-16.7,M,,*50
$GPGSA,A,3,20,27,10,13,18,16,,,,,,,1.83,1.60,0.91*0D
$GPGSV,3,1,12,20,88,217,14,18,60,093,26,10,52,235,29,27,43,302,13*72
$GPGSV,3,2,12,15,39,066,,46,33,188,,16,24,262,17,21,21,290,*7C
$GPGSV,3,3,12,13,18,039,15,08,13,319,17,26,08,230,,29,07,153,*7E
$GPRMC,190631.000,A,4913.4937,N,12249.3351,W,6.32,18.91,180920,,,A*4A
$GPVTG,18.91,T,,M,6.32,N,11.71,K,A*3D
$GPGGA,190632.000,4913.4949,N,12249.3344,W,1,6,1.60,13.3,M,-16.7,M,,*5F
$GPGSA,A,3,20,27,10,13,18,16,,,,,,,1.84,1.60,0.91*0A
$GPRMC,190632.000,A,4913.4949,N,12249.3344,W,5.66,13.42,180920,,,A*43
$GPVTG,13.42,T,,M,5.66,N,10.49,K,A*30
$GPGGA,190633.000,4913.4960,N,12249.3338,W,1,6,1.89,13.4,M,-16.7,M,,*5E
$GPGSA,A,3,20,27,10,13,18,16,,,,,,,2.86,1.89,2.15*02
$GPRMC,190633.000,A,4913.4960,N,12249.3338,W,5.32,10.13,180920,,,A*44
$GPVTG,10.13,T,,M,5.32,N,9.85,K,A*0E
$GPGGA,190634.000,4913.4973,N,12249.3335,W,1,6,1.89,13.6,M,-16.7,M,,*54
$GPGSA,A,3,20,27,10,13,18,16,,,,,,,2.86,1.89,2.14*03
$GPRMC,190634.000,A,4913.4973,N,12249.3335,W,5.32,2.88,180920,,,A*7D
$GPVTG,2.88,T,,M,5.32,N,9.85,K,A*3F
$GPGGA,190635.000,4913.4983,N,12249.3334,W,1,6,1.90,13.7,M,-16.7,M,,*52
$GPGSA,A,3,20,27,10,13,18,16,,,,,,,2.86,1.90,2.15*0A
$GPRMC,190635.000,A,4913.4983,N,12249.3334,W,5.27,355.09,180920,,,A*7E
$GPVTG,355.09,T,,M,5.27,N,9.76,K,A*3F
$GPGGA,190636.000,4913.4990,N,12249.3329,W,1,6,1.90,13.8,M,-16.7,M,,*50
$GPGSA,A,3,20,27,10,13,18,16,,,,,,,2.86,1.90,2.15*0A
$GPGSV,3,1,12,20,88,217,18,18,60,093,24,10,52,235,24,27,43,302,18*7A
$GPGSV,3,2,12,15,39,066,,48,32,193,,16,24,262,19,21,21,291,*76
$GPGSV,3,3,12,13,18,039,16,08,13,319,19,26,08,230,,29,07,153,*73
$GPRMC,190636.000,A,4913.4990,N,12249.3329,W,5.03,355.75,180920,,,A*7E
$GPVTG,355.75,T,,M,5.03,N,9.31,K,A*31
$GPGGA,190637.000,4913.5005,N,12249.3324,W,1,6,1.89,14.0,M,-16.7,M,,*5F
$GPGSA,A,3,20,27,10,13,18,16,,,,,,,2.86,1.89,2.14*03
$GPRMC,190637.000,A,4913.5005,N,12249.3324,W,5.53,356.64,180920,,,A*70
$GPVTG,356.64,T,,M,5.53,N,10.25,K,A*0A
$GPGGA,190638.000,4913.5019,N,12249.3320,W,1,6,1.89,14.1,M,-16.7,M,,*58
$GPGSA,A,3,20,27,10,13,18,16,,,,,,,2.86,1.89,2.14*03
$GPRMC,190638.000,A,4913.5019,N,12249.3320,W,5.52,359.89,180920,,,A*7B
$GPVTG,359.89,T,,M,5.52,N,10.24,K,A*06
$GPGGA,190639.000,4913.5037,N,12249.3317,W,1,6,1.89,14.2,M,-16.7,M,,*52
$GPGSA,A,3,20,27,10,13,18,16,,,,,,,2.86,1.89,2.14*03
$GPRMC,190639.000,A,4913.5037,N,12249.3317,W,5.79,0.60,180920,,,A*73
$GPVTG,0.60,T,,M,5.79,N,10.74,K,A*02
$GPGGA,190640.000,4913.5055,N,12249.3314,W,1,6,1.90,14.3,M,-16.7,M,,*52
$GPGSA,A,3,20,27,10,13,18,16,,,,,,,2.86,1.90,2.15*0A
$GPRMC,190640.000,A,4913.5055,N,12249.3314,W,6.17,358.78,180920,,,A*76
$GPVTG,358.78,T,,M,6.17,N,11.44,K,A*0C
$GPGGA,190641.000,4913.5069,N,12249.3311,W,1,6,1.89,14.4,M,-16.7,M,,*56
$GPGSA,A,3,20,27,10,13,18,16,,,,,,,2.86,1.89,2.14*03
$GPGSV,3,1,11,20,88,217,18,18,60,093,26,10,52,235,22,27,43,302,17*72
$GPGSV,3,2,11,15,39,066,,16,24,262,18,21,21,291,,13,18,039,19*7B
$GPGSV,3,3,11,08,13,319,17,26,08,230,,29,07,153,*48
$GPRMC,190641.000,A,4913.5069,N,12249.3311,W,6.11,359.30,180920,,,A*76
$GPVTG,359.30,T,,M,6.11,N,11.33,K,A*07
$GPGGA,190642.000,4913.5084,N,12249.3306,W,1,7,1.83,14.5,M,-16.7,M,,*5A
$GPGSA,A,3,20,27,10,15,13,18,16,,,,,,2.80,1.83,2.12*0D
$GPRMC,190642.000,A,4913.5084,N,12249.3306,W,5.80,356.41,180920,,,A*72
$GPVTG,356.41,T,,M,5.80,N,10.74,K,A*07
$GPGGA,190643.000,4913.5097,N,12249.3301,W,1,7,1.83,14.6,M,-16.7,M,,*5D
$GPGSA,A,3,20,27,10,15,13,18,16,,,,,,2.80,1.83,2.12*0D
$GPRMC,190643.000,A,4913.5097,N,12249.3301,W,5.58,1.86,180920,,,A*79
$GPVTG,1.86,T,,M,5.58,N,10.33,K,A*0B
$GPGGA,190644.000,4913.5112,N,12249.3294,W,1,7,1.83,14.6,M,-16.7,M,,*5B
$GPGSA,A,3,20,27,10,15,13,18,16,,,,,,2.80,1.83,2.11*0E
$GPRMC,190644.000,A,4913.5112,N,12249.3294,W,5.58,1.65,180920,,,A*72
$GPVTG,1.65,T,,M,5.58,N,10.34,K,A*01
$GPGGA,190645.000,4913.5125,N,12249.3290,W,1,7,1.83,14.8,M,-16.7,M,,*54
$GPGSA,A,3,20,27,10,15,13,18,16,,,,,,2.80,1.83,2.12*0D
$GPRMC,190645.000,A,4913.5125,N,12249.3290,W,5.16,5.58,180920,,,A*73
$GPVTG,5.58,T,,M,5.16,N,9.57,K,A*3C
$GPGGA,190646.000,4913.5137,N,12249.3283,W,1,7,1.83,14.8,M,-16.7,M,,*56
$GPGSA,A,3,20,27,10,15,13,18,16,,,,,,2.80,1.83,2.11*0E
$GPGSV,3,1,12,20,88,217,19,18,60,093,26,10,52,235,20,27,43,302,16*73
$GPGSV,3,2,12,15,39,066,28,51,31,159,,16,24,262,18,21,21,291,*70
$GPGSV,3,3,12,13,18,039,18,08,13,319,26,26,08,230,,29,07,153,*71
$GPRMC,190646.000,A,4913.5137,N,12249.3283,W,5.21,10.49,180920,,,A*41
$GPVTG,10.49,T,,M,5.21,N,9.66,K,A*0E
$GPGGA,190647.000,4913.5147,N,12249.3273,W,1,7,1.83,15.0,M,-16.7,M,,*56
$GPGSA,A,3,20,27,10,15,13,18,16,,,,,,2.80,1.83,2.11*0E
$GPRMC,190647.000,A,4913.5147,N,12249.3273,W,5.05,17.36,180920,,,A*41
$GPVTG,17.36,T,,M,5.05,N,9.36,K,A*02
$GPGGA,190648.000,4913.5157,N,12249.3265,W,1,7,1.55,15.1,M,-16.7,M,,*55
$GPGSA,A,3,20,27,10,15,13,18,16,,,,,,1.79,1.55,0.90*0B
$GPRMC,190648.000,A,4913.5157,N,12249.3265,W,4.54,12.99,180920,,,A*4D
$GPVTG,12.99,T,,M,4.54,N,8.41,K,A*06
$GPGGA,190649.000,4913.5167,N,12249.3256,W,1,7,1.83,15.2,M,-16.7,M,,*5F
$GPGSA,A,3,20,27,10,15,13,18,16,,,,,,2.80,1.83,2.11*0E
$GPRMC,190649.000,A,4913.5167,N,12249.3256,W,4.53,11.62,180920,,,A*4F
$GPVTG,11.62,T,,M,4.53,N,8.40,K,A*07
$GPGGA,190650.000,4913.5188,N,12249.3263,W,1,7,1.83,15.2,M,-16.7,M,,*50
$GPGSA,A,3,20,27,10,15,13,18,16,,,,,,2.80,1.83,2.11*0E
$GPRMC,190650.000,A,4913.5188,N,12249.3263,W,5.24,4.19,180920,,,A*79
$GPVTG,4.19,T,,M,5.24,N,9.71,K,A*3D
$GPGGA,190651.000,4913.5207,N,12249.3263,W,1,7,1.83,15.2,M,-16.7,M,,*55
$GPGSA,A,3,20,27,10,15,13,18,16,,,,,,2.80,1.83,2.11*0E
$GPGSV,3,1,12,20,88,217,18,18,60,093,25,10,52,235,19,27,43,302,15*78
$GPGSV,3,2,12,15,39,066,32,16,24,262,18,21,21,291,,13,18,039,17*77
$GPGSV,3,3,12,08,13,319,23,26,08,230,,29,07,153,,34,,,*4B
$GPRMC,190651.000,A,4913.5207,N,12249.3263,W,5.86,3.30,180920,,,A*78
$GPVTG,3.30,T,,M,5.86,N,10.86,K,A*09
$GPGGA,190652.000,4913.5223,N,12249.3256,W,1,7,1.83,15.4,M,-16.7,M,,*50
$GPGSA,A,3,20,27,10,15,13,18,16,,,,,,2.80,1.83,2.11*0E
$GPRMC,190652.000,A,4913.5223,N,12249.3256,W,6.11,9.24,180920,,,A*79
$GPVTG,9.24,T,,M,6.11,N,11.32,K,A*05
$GPGGA,190653.000,4913.5248,N,12249.3252,W,1,7,1.83,15.3,M,-16.7,M,,*5F
$GPGSA,A,3,20,27,10,15,13,18,16,,,,,,2.80,1.83,2.11*0E
$GPRMC,190653.000,A,4913.5248,N,12249.3252,W,7.05,14.95,180920,,,A*43
$GPVTG,14.95,T,,M,7.05,N,13.06,K,A*32
$GPGGA,190654.000,4913.5266,N,12249.3244,W,1,7,1.83,15.4,M,-16.7,M,,*54
$GPGSA,A,3,20,27,10,15,13,18,16,,,,,,2.79,1.83,2.11*08
$GPRMC,190654.000,A,4913.5266,N,12249.3244,W,7.06,18.34,180920,,,A*4B
$GPVTG,18.34,T,,M,7.06,N,13.08,K,A*38
$GPGGA,190655.000,4913.5285,N,12249.3237,W,1,7,1.55,15.5,M,-16.7,M,,*56
$GPGSA,A,3,20,27,10,15,13,18,16,,,,,,1.79,1.55,0.90*0B
$GPRMC,190655.000,A,4913.5285,N,12249.3237,W,6.17,10.81,180920,,,A*44
$GPVTG,10.81,T,,M,6.17,N,11.43,K,A*32
$GPGGA,190656.000,4913.5307,N,12249.3233,W,1,7,1.83,15.6,M,-16.7,M,,*52
$GPGSA,A,3,20,27,10,15,13,18,16,,,,,,2.80,1.83,2.11*0E
$GPGSV,3,1,12,20,88,217,18,18,60,093,22,10,52,235,15,27,43,302,13*75
$GPGSV,3,2,12,15,39,066,33,16,24,262,14,21,21,291,,13,18,039,21*7F
$GPGSV,3,3,12,08,13,319,20,26,08,230,,29,07,153,,34,,,*48
$GPRMC,190656.000,A,4913.5307,N,12249.3233,W,5.83,9.83,180920,,,A*7C
$GPVTG,9.83,T,,M,5.83,N,10.80,K,A*08
$GPGGA,190657.000,4913.5323,N,12249.3231,W,1,7,1.83,15.6,M,-16.7,M,,*57
$GPGSA,A,3,20,27,10,15,13,18,16,,,,,,2.80,1.83,2.11*0E
$GPRMC,190657.000,A,4913.5323,N,12249.3231,W,5.79,7.33,180920,,,A*79
$GPVTG,7.33,T,,M,5.79,N,10.73,K,A*04
$GPGGA,190658.000,4913.5340,N,12249.3232,W,1,7,1.83,15.7,M,-16.7,M,,*5F
$GPGSA,A,3,20,27,10,15,13,18,16,,,,,,2.80,1.83,2.11*0E
$GPRMC,190658.000,A,4913.5340,N,12249.3232,W,5.77,4.85,180920,,,A*70
$GPVTG,4.85,T,,M,5.77,N,10.69,K,A*0F
$GPGGA,190659.000,4913.5366,N,12249.3232,W,1,7,1.83,15.9,M,-16.7,M,,*54
$GPGSA,A,3,20,27,10,15,13,18,16,,,,,,2.79,1.83,2.11*08
$GPRMC,190659.000,A,4913.5366,N,12249.3232,W,5.96,6.07,180920,,,A*72
$GPVTG,6.07,T,,M,5.96,N,11.05,K,A*03
$GPGGA,190700.000,4913.5380,N,12249.3234,W,1,6,1.97,16.2,M,-16.7,M,,*5B
$GPGSA,A,3,20,27,10,15,18,16,,,,,,,3.17,1.97,2.49*0B
$GPRMC,190700.000,A,4913.5380,N,12249.3234,W,5.49,2.40,180920,,,A*74
$GPVTG,2.40,T,,M,5.49,N,10.17,K,A*04
$GPGGA,190701.000,4913.5404,N,12249.3242,W,1,7,1.83,16.4,M,-16.7,M,,*52
$GPGSA,A,3,20,27,10,15,13,18,16,,,,,,2.80,1.83,2.11*0E
$GPGSV,3,1,12,20,88,217,17,18,60,093,23,10,52,235,19,27,43,302,15*71
$GPGSV,3,2,12,15,39,066,23,16,24,262,16,21,21,291,,13,18,039,15*7B
$GPGSV,3,3,12,08,13,319,,26,08,230,,29,07,153,,35,,,*4B
$GPRMC,190701.000,A,4913.5404,N,12249.3242,W,5.48,354.87,180920,,,A*75
$GPVTG,354.87,T,,M,5.48,N,10.15,K,A*0C
$GPGGA,190702.000,4913.5430,N,12249.3251,W,1,8,1.00,17.1,M,-16.7,M,,*54
$GPGSA,A,3,20,27,10,15,13,29,18,16,,,,,1.64,1.00,1.30*07
$GPRMC,190702.000,A,4913.5430,N,12249.3251,W,6.13,349.64,180920,,,A*7F
$GPVTG,349.64,T,,M,6.13,N,11.35,K,A*03
$GPGGA,190703.000,4913.5446,N,12249.3250,W,1,8,1.00,17.9,M,-16.7,M,,*5D
$GPGSA,A,3,20,27,10,15,13,29,18,16,,,,,1.64,1.00,1.30*07
$GPRMC,190703.000,A,4913.5446,N,12249.3250,W,5.72,350.25,180920,,,A*77
$GPVTG,350.25,T,,M,5.72,N,10.60,K,A*0B
$GPGGA,190704.000,4913.5471,N,12249.3261,W,1,8,1.00,18.0,M,-16.7,M,,*5A
$GPGSA,A,3,20,27,10,15,13,29,18,16,,,,,1.64,1.00,1.30*07
$GPRMC,190704.000,A,4913.5471,N,12249.3261,W,5.94,334.82,180920,,,A*71
$GPVTG,334.82,T,,M,5.94,N,11.00,K,A*0B
$GPGGA,190705.000,4913.5491,N,12249.3273,W,1,8,0.99,18.2,M,-16.7,M,,*55
$GPGSA,A,3,20,27,10,15,13,29,18,16,,,,,1.27,0.99,0.79*0D
$GPRMC,190705.000,A,4913.5491,N,12249.3273,W,5.77,332.75,180920,,,A*7E
$GPVTG,332.75,T,,M,5.77,N,10.69,K,A*06
$GPGGA,190706.000,4913.5505,N,12249.3289,W,1,8,0.99,18.4,M,-16.7,M,,*59
$GPGSA,A,3,20,27,10,15,13,29,18,16,,,,,1.27,0.99,0.79*0D
$GPGSV,3,1,12,20,89,214,16,18,60,094,22,10,52,235,17,27,43,302,15*7A
$GPGSV,3,2,12,15,39,066,32,16,23,262,17,21,21,291,,13,18,039,19*71
$GPGSV,3,3,12,08,13,319,,26,08,230,,29,07,153,17,36,,,*4E
$GPRMC,190706.000,A,4913.5505,N,12249.3289,W,5.70,326.59,180920,,,A*78
$GPVTG,326.59,T,,M,5.70,N,10.56,K,A*06
$GPGGA,190707.000,4913.5517,N,12249.3309,W,1,8,0.99,18.7,M,-16.7,M,,*51
$GPGSA,A,3,20,27,10,15,13,29,18,16,,,,,1.27,0.99,0.79*0D
$GPRMC,190707.000,A,4913.5517,N,12249.3309,W,5.71,313.76,180920,,,A*79
$GPVTG,313.76,T,,M,5.71,N,10.58,K,A*02
$GPGGA,190708.000,4913.5527,N,12249.3326,W,1,8,0.99,19.0,M,-16.7,M,,*56
$GPGSA,A,3,20,27,10,15,13,29,18,16,,,,,1.27,0.99,0.79*0D
$GPRMC,190708.000,A,4913.5527,N,12249.3326,W,5.53,309.21,180920,,,A*71
$GPVTG,309.21,T,,M,5.53,N,10.25,K,A*01
$GPGGA,190709.000,4913.5546,N,12249.3354,W,1,8,0.99,19.4,M,-16.7,M,,*51
$GPGSA,A,3,20,27,10,15,13,29,18,16,,,,,1.27,0.99,0.79*0D
$GPRMC,190709.000,A,4913.5546,N,12249.3354,W,6.57,309.87,180920,,,A*79
$GPVTG,309.87,T,,M,6.57,N,12.18,K,A*06
$GPGGA,190710.000,4913.5556,N,12249.3377,W,1,7,1.55,19.7,M,-16.7,M,,*54
$GPGSA,A,3,20,27,10,15,13,18,16,,,,,,1.79,1.55,0.90*0B
$GPRMC,190710.000,A,4913.5556,N,12249.3377,W,6.57,306.43,180920,,,A*76
$GPVTG,306.43,T,,M,6.57,N,12.18,K,A*01
$GPGGA,190711.000,4913.5567,N,12249.3396,W,1,7,1.55,20.0,M,-16.7,M,,*55
$GPGSA,A,3,20,27,10,15,13,18,16,,,,,,1.79,1.55,0.90*0B
$GPGSV,3,1,12,20,89,214,17,18,60,094,18,10,52,235,16,27,43,302,16*70
$GPGSV,3,2,12,15,39,066,29,16,23,262,17,21,21,291,,13,18,039,19*7B
$GPGSV,3,3,12,08,13,319,,26,08,230,,29,07,153,,38,,,*46
$GPRMC,190711.000,A,4913.5567,N,12249.3396,W,6.36,304.76,180920,,,A*79
$GPVTG,304.76,T,,M,6.36,N,11.79,K,A*06
$GPGGA,190712.000,4913.5576,N,12249.3422,W,1,7,1.55,20.3,M,-16.7,M,,*5D
$GPGSA,A,3,20,27,10,15,13,18,16,,,,,,1.79,1.55,0.90*0B
$GPRMC,190712.000,A,4913.5576,N,12249.3422,W,6.68,300.04,180920,,,A*78
$GPVTG,300.04,T,,M,6.68,N,12.39,K,A*0B
$GPGGA,190713.000,4913.5587,N,12249.3452,W,1,8,1.24,20.5,M,-16.7,M,,*5A
$GPGSA,A,3,20,27,10,15,08,13,18,16,,,,,1.53,1.24,0.90*0D
$GPRMC,190713.000,A,4913.5587,N,12249.3452,W,7.25,295.18,180920,,,A*78
$GPVTG,295.18,T,,M,7.25,N,13.44,K,A*08
$GPGGA,190714.000,4913.5592,N,12249.3465,W,1,8,1.24,21.0,M,-16.7,M,,*59
$GPGSA,A,3,20,27,10,15,08,13,18,16,,,,,1.53,1.24,0.90*0D
$GPRMC,190714.000,A,4913.5592,N,12249.3465,W,6.68,294.87,180920,,,A*70
$GPVTG,294.87,T,,M,6.68,N,12.38,K,A*0D
$GPGGA,190715.000,4913.5593,N,12249.3490,W,1,8,1.24,21.3,M,-16.7,M,,*50
$GPGSA,A,3,20,27,10,15,08,13,18,16,,,,,1.53,1.24,0.90*0D
$GPRMC,190715.000,A,4913.5593,N,12249.3490,W,6.39,286.99,180920,,,A*72
$GPVTG,286.99,T,,M,6.39,N,11.84,K,A*01
$GPGGA,190716.000,4913.5591,N,12249.3513,W,1,8,1.24,21.7,M,-16.7,M,,*5F
$GPGSA,A,3,20,27,10,15,08,13,18,16,,,,,1.53,1.24,0.90*0D
$GPGSV,3,1,12,20,89,214,17,18,60,094,17,10,52,235,14,27,44,302,19*75
$GPGSV,3,2,12,15,39,066,27,16,23,262,17,21,21,291,,13,18,039,17*7B
$GPGSV,3,3,12,08,13,319,21,29,07,153,,26,07,230,,38,,,*4A
$GPRMC,190716.000,A,4913.5591,N,12249.3513,W,5.94,280.82,180920,,,A*71
$GPVTG,280.82,T,,M,5.94,N,11.02,K,A*07
$GPGGA,190717.000,4913.5579,N,12249.3531,W,1,8,1.24,22.1,M,-16.7,M,,*5D
$GPGSA,A,3,20,27,10,15,08,13,18,16,,,,,1.53,1.24,0.90*0D
$GPRMC,190717.000,A,4913.5579,N,12249.3531,W,5.90,275.88,180920,,,A*72
$GPVTG,275.88,T,,M,5.90,N,10.93,K,A*0A
$GPGGA,190718.000,4913.5583,N,12249.3560,W,1,8,1.61,22.4,M,-16.7,M,,*57
$GPGSA,A,3,20,27,10,15,08,13,18,16,,,,,2.64,1.61,2.10*01
$GPRMC,190718.000,A,4913.5583,N,12249.3560,W,5.85,278.07,180920,,,A*72
$GPVTG,278.07,T,,M,5.85,N,10.84,K,A*02
$GPGGA,190719.000,4913.5585,N,12249.3587,W,1,8,1.61,22.6,M,-16.7,M,,*5B
$GPGSA,A,3,20,27,10,15,08,13,18,16,,,,,2.65,1.61,2.10*00
$GPRMC,190719.000,A,4913.5585,N,12249.3587,W,5.30,278.20,180920,,,A*77
$GPVTG,278.20,T,,M,5.30,N,9.82,K,A*37
$GPGGA,190720.000,4913.5579,N,12249.3647,W,1,8,1.61,22.3,M,-16.7,M,,*58
$GPGSA,A,3,20,27,10,15,08,13,18,16,,,,,2.64,1.61,2.10*01
$GPRMC,190720.000,A,4913.5579,N,12249.3647,W,4.78,275.57,180920,,,A*71
$GPVTG,275.57,T,,M,4.78,N,8.85,K,A*31
$GPGGA,190721.000,4913.5584,N,12249.3674,W,1,8,1.24,22.6,M,-16.7,M,,*5F
$GPGSA,A,3,20,27,10,15,08,13,18,16,,,,,1.53,1.24,0.90*0D
$GPGSV,3,1,12,20,89,214,17,18,60,094,17,10,52,235,18,27,44,302,17*77
$GPGSV,3,2,12,15,39,066,27,16,23,262,22,21,21,291,,13,18,039,22*7B
$GPGSV,3,3,12,08,13,319,18,29,07,153,,26,07,230,,41,,,*4E
$GPRMC,190721.000,A,4913.5584,N,12249.3674,W,5.23,279.09,180920,,,A*7A
$GPVTG,279.09,T,,M,5.23,N,9.68,K,A*3B
$GPGGA,190722.000,4913.5579,N,12249.3717,W,1,8,1.24,22.4,M,-16.7,M,,*58
$GPGSA,A,3,20,27,10,15,08,13,18,16,,,,,1.53,1.24,0.90*0D
$GPRMC,190722.000,A,4913.5579,N,12249.3717,W,6.01,269.01,180920,,,A*75
$GPVTG,269.01,T,,M,6.01,N,11.13,K,A*04
$GPGGA,190723.000,4913.5579,N,12249.3744,W,1,8,1.24,22.7,M,-16.7,M,,*5C
$GPGSA,A,3,20,27,10,15,08,13,18,16,,,,,1.53,1.24,0.90*0D
$GPRMC,190723.000,A,4913.5579,N,12249.3744,W,6.39,265.28,180920,,,A*7E
$GPVTG,265.28,T,,M,6.39,N,11.84,K,A*06
$GPGGA,190724.000,4913.5574,N,12249.3781,W,1,8,1.24,22.9,M,-16.7,M,,*51
$GPGSA,A,3,20,27,10,15,08,13,18,16,,,,,1.53,1.24,0.90*0D
$GPRMC,190724.000,A,4913.5574,N,12249.3781,W,5.50,258.93,180920,,,A*7F
$GPVTG,258.93,T,,M,5.50,N,10.19,K,A*01
$GPGGA,190725.000,4913.5580,N,12249.3828,W,1,8,1.24,23.5,M,-16.7,M,,*5A
$GPGSA,A,3,20,27,10,15,08,13,18,16,,,,,1.53,1.24,0.90*0D
$GPRMC,190725.000,A,4913.5580,N,12249.3828,W,5.09,254.07,180920,,,A*74
$GPVTG,254.07,T,,M,5.09,N,9.43,K,A*3B
$GPGGA,190726.000,4913.5576,N,12249.3859,W,1,8,1.24,23.9,M,-16.7,M,,*5A
$GPGSA,A,3,20,27,10,15,08,13,18,16,,,,,1.53,1.24,0.90*0D
$GPGSV,3,1,12,20,89,214,17,18,60,094,16,10,52,235,16,27,44,302,31*7C
$GPGSV,3,2,12,15,39,066,27,16,23,262,20,21,21,291,,13,18,039,27*7C
$GPGSV,3,3,12,08,13,319,14,29,07,153,,26,07,230,,43,,,*40
$GPRMC,190726.000,A,4913.5576,N,12249.3859,W,4.91,242.06,180920,,,A*7E
$GPVTG,242.06,T,,M,4.91,N,9.10,K,A*3B
$GPGGA,190727.000,4913.5567,N,12249.3883,W,1,8,1.24,24.3,M,-16.7,M,,*51
$GPGSA,A,3,20,27,10,15,08,13,18,16,,,,,1.53,1.24,0.90*0D
$GPRMC,190727.000,A,4913.5567,N,12249.3883,W,4.44,228.91,180920,,,A*72
$GPVTG,228.91,T,,M,4.44,N,8.23,K,A*30
$GPGGA,190728.000,4913.5549,N,12249.3901,W,1,8,1.24,24.6,M,-16.7,M,,*5C
$GPGSA,A,3,20,27,10,15,08,13,18,16,,,,,1.53,1.24,0.90*0D
$GPRMC,190728.000,A,4913.5549,N,12249.3901,W,4.40,222.01,180920,,,A*7D
$GPVTG,222.01,T,,M,4.40,N,8.16,K,A*31
$GPGGA,190729.000,4913.5529,N,12249.3911,W,1,8,1.24,24.9,M,-16.7,M,,*55
$GPGSA,A,3,20,27,10,15,08,13,18,16,,,,,1.53,1.24,0.90*0D
$GPRMC,190729.000,A,4913.5529,N,12249.3911,W,4.42,214.15,180920,,,A*79
$GPVTG,214.15,T,,M,4.42,N,8.19,K,A*3C
$GPGGA,190730.000,4913.5504,N,12249.3919,W,1,8,1.24,25.2,M,-16.7,M,,*50
$GPGSA,A,3,20,27,10,15,08,13,18,16,,,,,1.53,1.24,0.90*0D
$GPRMC,190730.000,A,4913.5504,N,12249.3919,W,4.82,202.67,180920,,,A*78
$GPVTG,202.67,T,,M,4.82,N,8.93,K,A*30
$GPGGA,190731.000,4913.5481,N,12249.3925,W,1,8,1.24,25.4,M,-16.7,M,,*54
$GPGSA,A,3,20,27,10,15,08,13,18,16,,,,,1.53,1.24,0.90*0D
$GPGSV,3,1,12,20,89,214,14,18,60,094,15,10,52,235,19,27,44,302,27*74
$GPGSV,3,2,12,15,39,066,20,16,23,262,18,21,21,291,,13,18,039,17*73
$GPGSV,3,3,12,08,14,319,11,29,07,153,,26,07,230,,45,,,31*46
$GPRMC,190731.000,A,4913.5481,N,12249.3925,W,5.05,200.50,180920,,,A*72
$GPVTG,200.50,T,,M,5.05,N,9.36,K,A*36
$GPGGA,190732.000,4913.5468,N,12249.3936,W,1,8,0.99,26.0,M,-16.7,M,,*52
$GPGSA,A,3,20,27,10,15,13,29,18,16,,,,,1.27,0.99,0.79*0D
$GPRMC,190732.000,A,4913.5468,N,12249.3936,W,5.21,197.39,180920,,,A*70
$GPVTG,197.39,T,,M,5.21,N,9.65,K,A*34
$GPGGA,190733.000,4913.5442,N,12249.3943,W,1,8,0.99,26.2,M,-16.7,M,,*5B
$GPGSA,A,3,20,27,10,15,13,29,18,16,,,,,1.27,0.99,0.79*0D
$GPRMC,190733.000,A,4913.5442,N,12249.3943,W,5.50,192.17,180920,,,A*74
$GPVTG,192.17,T,,M,5.50,N,10.19,K,A*08
$GPGGA,190734.000,4913.5419,N,12249.3946,W,1,8,1.24,26.4,M,-16.7,M,,*56
$GPGSA,A,3,20,27,10,15,08,13,18,16,,,,,1.53,1.24,0.90*0D
$GPRMC,190734.000,A,4913.5419,N,12249.3946,W,5.53,184.69,180920,,,A*75
$GPVTG,184.69,T,,M,5.53,N,10.25,K,A*0A
$GPGGA,190735.000,4913.5395,N,12249.3949,W,1,8,1.24,26.7,M,-16.7,M,,*58
$GPGSA,A,3,20,27,10,15,08,13,18,16,,,,,1.53,1.24,0.90*0D
$GPRMC,190735.000,A,4913.5395,N,12249.3949,W,5.56,184.77,180920,,,A*72
$GPVTG,184.77,T,,M,5.56,N,10.29,K,A*0C
$GPGGA,190736.000,4913.5373,N,12249.3951,W,1,8,1.24,27.1,M,-16.7,M,,*5D
$GPGSA,A,3,20,27,10,15,08,13,18,16,,,,,1.53,1.24,0.90*0D
$GPGSV,3,1,12,20,89,214,16,18,60,094,17,10,52,235,24,27,44,302,26*7B
$GPGSV,3,2,12,15,39,066,23,16,23,262,17,21,21,291,,13,17,039,17*70
$GPGSV,3,3,12,08,14,319,16,29,07,153,,26,07,230,,45,,,*43
$GPRMC,190736.000,A,4913.5373,N,12249.3951,W,5.60,183.03,180920,,,A*71
$GPVTG,183.03,T,,M,5.60,N,10.37,K,A*02
$GPGGA,190737.000,4913.5354,N,12249.3953,W,1,8,1.24,27.4,M,-16.7,M,,*5E
$GPGSA,A,3,20,27,10,15,08,13,18,16,,,,,1.53,1.24,0.90*0D
$GPRMC,190737.000,A,4913.5354,N,12249.3953,W,5.43,183.55,180920,,,A*75
$GPVTG,183.55,T,,M,5.43,N,10.06,K,A*02
$GPGGA,190738.000,4913.5335,N,12249.3961,W,1,8,1.24,27.6,M,-16.7,M,,*55
$GPGSA,A,3,20,27,10,15,08,13,18,16,,,,,1.53,1.24,0.90*0D
$GPRMC,190738.000,A,4913.5335,N,12249.3961,W,5.13,191.25,180920,,,A*7D
$GPVTG,191.25,T,,M,5.13,N,9.51,K,A*39
$GPGGA,190739.000,4913.5321,N,12249.3965,W,1,8,1.24,27.8,M,-16.7,M,,*5B
$GPGSA,A,3,20,27,10,15,08,13,18,16,,,,,1.53,1.24,0.90*0D
$GPRMC,190739.000,A,4913.5321,N,12249.3965,W,4.69,192.44,180920,,,A*75
$GPVTG,192.44,T,,M,4.69,N,8.70,K,A*33
$GPGGA,190740.000,4913.5305,N,12249.3970,W,1,8,1.24,27.8,M,-16.7,M,,*57
$GPGSA,A,3,20,27,10,15,08,13,18,16,,,,,1.53,1.24,0.90*0D
$GPRMC,190740.000,A,4913.5305,N,12249.3970,W,4.67,192.36,180920,,,A*72
$GPVTG,192.36,T,,M,4.67,N,8.66,K,A*3F
$GPGGA,190741.000,4913.5294,N,12249.3975,W,1,8,1.24,28.0,M,-16.7,M,,*5D
$GPGSA,A,3,20,27,10,15,08,13,18,16,,,,,1.53,1.24,0.90*0D
$GPGSV,3,1,12,20,89,210,16,18,59,094,17,10,52,235,22,27,44,302,31*75
$GPGSV,3,2,12,15,39,066,25,16,23,261,19,21,21,291,,13,17,039,16*7A
$GPGSV,3,3,12,08,14,319,15,29,07,153,,26,07,230,,47,,,*42
$GPRMC,190741.000,A,4913.5294,N,12249.3975,W,3.95,198.18,180920,,,A*73
$GPVTG,198.18,T,,M,3.95,N,7.31,K,A*3E
$GPGGA,190742.000,4913.5285,N,12249.3982,W,1,9,1.20,28.1,M,-16.7,M,,*52
$GPGSA,A,3,20,27,10,15,08,13,21,18,16,,,,1.50,1.20,0.90*09
$GPRMC,190742.000,A,4913.5285,N,12249.3982,W,3.31,198.44,180920,,,A*7F
$GPVTG,198.44,T,,M,3.31,N,6.14,K,A*3F
$GPGGA,190743.000,4913.5278,N,12249.3990,W,1,9,1.20,28.4,M,-16.7,M,,*57
$GPGSA,A,3,20,27,10,15,08,13,21,18,16,,,,1.50,1.20,0.90*09
$GPRMC,190743.000,A,4913.5278,N,12249.3990,W,3.01,198.64,180920,,,A*7E
$GPVTG,198.64,T,,M,3.01,N,5.58,K,A*35
$GPGGA,190744.000,4913.5265,N,12249.3993,W,1,8,1.24,28.5,M,-16.7,M,,*5B
$GPGSA,A,3,20,27,10,15,08,13,18,16,,,,,1.53,1.24,0.90*0D
$GPRMC,190744.000,A,4913.5265,N,12249.3993,W,3.68,173.04,180920,,,A*7A
$GPVTG,173.04,T,,M,3.68,N,6.82,K,A*3D
$GPGGA,190745.000,4913.5257,N,12249.3997,W,1,7,1.55,28.4,M,-16.7,M,,*57
$GPGSA,A,3,20,27,10,15,13,18,16,,,,,,1.79,1.55,0.90*0B
$GPRMC,190745.000,A,4913.5257,N,12249.3997,W,3.28,172.51,180920,,,A*7B
$GPVTG,172.51,T,,M,3.28,N,6.07,K,A*35
$GPGGA,190746.000,4913.5252,N,12249.3998,W,1,7,1.55,28.5,M,-16.7,M,,*5F
$GPGSA,A,3,20,27,10,15,13,18,16,,,,,,1.79,1.55,0.90*0B
$GPGSV,3,1,12,20,89,210,16,18,59,094,17,10,52,235,23,27,44,302,21*75
$GPGSV,3,2,12,15,39,066,19,16,23,261,20,21,22,291,,13,17,039,17*7D
$GPGSV,3,3,12,08,14,319,17,29,07,153,,26,07,230,,47,,,*40
$GPRMC,190746.000,A,4913.5252,N,12249.3998,W,2.76,164.25,180920,,,A*7C
$GPVTG,164.25,T,,M,2.76,N,5.12,K,A*3C
$GPGGA,190747.000,4913.5247,N,12249.4001,W,1,7,1.55,28.5,M,-16.7,M,,*54
$GPGSA,A,3,20,27,10,15,13,18,16,,,,,,1.79,1.55,0.90*0B
$GPRMC,190747.000,A,4913.5247,N,12249.4001,W,2.56,168.69,180920,,,A*71
$GPVTG,168.69,T,,M,2.56,N,4.74,K,A*3B
$GPGGA,190748.000,4913.5240,N,12249.4005,W,1,7,1.55,28.4,M,-16.7,M,,*59
$GPGSA,A,3,20,27,10,15,13,18,16,,,,,,1.79,1.55,0.90*0B
$GPRMC,190748.000,A,4913.5240,N,12249.4005,W,2.58,170.54,180920,,,A*74
$GPVTG,170.54,T,,M,2.58,N,4.79,K,A*3F
$GPGGA,190749.000,4913.5236,N,12249.4006,W,1,7,1.55,28.6,M,-16.7,M,,*58
$GPGSA,A,3,20,27,10,15,13,18,16,,,,,,1.79,1.55,0.90*0B
$GPRMC,190749.000,A,4913.5236,N,12249.4006,W,2.40,167.98,180920,,,A*78
$GPVTG,167.98,T,,M,2.40,N,4.44,K,A*3E
$GPGGA,190750.000,4913.5233,N,12249.4006,W,1,7,1.55,28.8,M,-16.7,M,,*5B
$GPGSA,A,3,20,27,10,15,13,18,16,,,,,,1.79,1.55,0.90*0B
$GPRMC,190750.000,A,4913.5233,N,12249.4006,W,2.10,167.37,180920,,,A*75
$GPVTG,167.37,T,,M,2.10,N,3.88,K,A*39
$GPGGA,190751.000,4913.5232,N,12249.4007,W,1,7,1.55,29.1,M,-16.7,M,,*52
$GPGSA,A,3,20,27,10,15,13,18,16,,,,,,1.79,1.55,0.90*0B
$GPGSV,3,1,12,20,89,210,17,18,59,094,16,10,52,235,26,27,44,302,21*70
$GPGSV,3,2,12,15,39,066,19,16,23,261,17,21,22,291,,13,17,039,18*76
$GPGSV,3,3,12,08,14,319,16,29,07,153,,26,07,230,,49,,,*4F
$GPRMC,190751.000,A,4913.5232,N,12249.4007,W,1.37,167.37,180920,,,A*72
$GPVTG,167.37,T,,M,1.37,N,2.54,K,A*3F
$GPGGA,190752.000,4913.5231,N,12249.4008,W,1,7,1.55,29.3,M,-16.7,M,,*5F
$GPGSA,A,3,20,27,10,15,13,18,16,,,,,,1.79,1.55,0.90*0B
$GPRMC,190752.000,A,4913.5231,N,12249.4008,W,0.70,167.37,180920,,,A*7F
$GPVTG,167.37,T,,M,0.70,N,1.30,K,A*3C
$GPGGA,190753.000,4913.5233,N,12249.4011,W,1,7,1.55,29.5,M,-16.7,M,,*52
$GPGSA,A,3,20,27,10,15,13,18,16,,,,,,1.79,1.55,0.90*0B
$GPRMC,190753.000,A,4913.5233,N,12249.4011,W,0.63,167.37,180920,,,A*76
$GPVTG,167.37,T,,M,0.63,N,1.17,K,A*3B
$GPGGA,190754.000,4913.5234,N,12249.4014,W,1,7,1.55,29.4,M,-16.7,M,,*56
$GPGSA,A,3,20,27,10,15,13,18,16,,,,,,1.79,1.55,0.90*0B
$GPRMC,190754.000,A,4913.5234,N,12249.4014,W,0.67,167.37,180920,,,A*77
$GPVTG,167.37,T,,M,0.67,N,1.24,K,A*3F
$GPGGA,190755.000,4913.5234,N,12249.4011,W,1,7,1.55,29.6,M,-16.7,M,,*50
$GPGSA,A,3,20,27,10,15,13,18,16,,,,,,1.79,1.55,0.90*0B
$GPRMC,190755.000,A,4913.5234,N,12249.4011,W,0.67,167.37,180920,,,A*73
$GPVTG,167.37,T,,M,0.67,N,1.24,K,A*3F
$GPGGA,190756.000,4913.5234,N,12249.4008,W,1,7,1.55,29.8,M,-16.7,M,,*55
$GPGSA,A,3,20,27,10,15,13,18,16,,,,,,1.79,1.55,0.90*0B
$GPGSV,3,1,11,20,89,210,21,18,59,094,18,10,52,235,18,27,44,302,22*76
$GPGSV,3,2,11,15,39,066,20,16,23,261,17,21,22,291,,13,17,039,19*7E
$GPGSV,3,3,11,08,14,319,17,29,07,153,,26,07,230,*40
$GPRMC,190756.000,A,4913.5234,N,12249.4008,W,0.64,167.37,180920,,,A*7B
$GPVTG,167.37,T,,M,0.64,N,1.18,K,A*33
$GPGGA,190757.000,4913.5235,N,12249.4006,W,1,7,1.55,29.9,M,-16.7,M,,*5A
$GPGSA,A,3,20,27,10,15,13,18,16,,,,,,1.79,1.55,0.90*0B
$GPRMC,190757.000,A,4913.5235,N,12249.4006,W,0.65,167.37,180920,,,A*74
$GPVTG,167.37,T,,M,0.65,N,1.20,K,A*39
$GPGGA,190758.000,4913.5236,N,12249.4004,W,1,7,1.55,30.1,M,-16.7,M,,*54
$GPGSA,A,3,20,27,10,15,13,18,16,,,,,,1.79,1.55,0.90*0B
$GPRMC,190758.000,A,4913.5236,N,12249.4004,W,0.63,167.37,180920,,,A*7C
$GPVTG,167.37,T,,M,0.63,N,1.17,K,A*3B
$GPGGA,190759.000,4913.5237,N,12249.4002,W,1,7,1.55,30.2,M,-16.7,M,,*51
$GPGSA,A,3,20,27,10,15,13,18,16,,,,,,1.79,1.55,0.90*0B
$GPRMC,190759.000,A,4913.5237,N,12249.4002,W,0.62,167.37,180920,,,A*7B
$GPVTG,167.37,T,,M,0.62,N,1.14,K,A*39
$GPGGA,190800.000,4913.5236,N,12249.4000,W,1,7,1.55,30.4,M,-16.7,M,,*57
$GPGSA,A,3,20,27,10,15,13,18,16,,,,,,1.79,1.55,0.90*0B
$GPRMC,190800.000,A,4913.5236,N,12249.4000,W,0.63,167.37,180920,,,A*7A
$GPVTG,167.37,T,,M,0.63,N,1.16,K,A*3A
$GPGGA,190801.000,4913.5236,N,12249.3997,W,1,7,1.55,30.5,M,-16.7,M,,*57
$GPGSA,A,3,20,27,10,15,13,18,16,,,,,,1.79,1.55,0.90*0B
$GPGSV,3,1,12,20,89,210,19,18,59,094,18,10,52,235,19,27,44,302,20*7D
$GPGSV,3,2,12,15,39,066,18,44,33,172,,16,23,261,19,21,22,291,*7A
$GPGSV,3,3,12,13,17,039,19,08,14,319,14,29,07,153,,26,07,230,*76
$GPRMC,190801.000,A,4913.5236,N,12249.3997,W,0.52,167.37,180920,,,A*79
$GPVTG,167.37,T,,M,0.52,N,0.96,K,A*31
$GPGGA,190802.000,4913.5235,N,12249.3995,W,1,6,1.62,30.7,M,-16.7,M,,*52
$GPGSA,A,3,20,27,10,15,13,18,,,,,,,1.88,1.62,0.96*00
$GPRMC,190802.000,A,4913.5235,N,12249.3995,W,0.84,167.37,180920,,,A*70
$GPVTG,167.37,T,,M,0.84,N,1.55,K,A*34
$GPGGA,190803.000,4913.5235,N,12249.3992,W,1,6,1.62,30.8,M,-16.7,M,,*5B
$GPGSA,A,3,20,27,10,15,13,18,,,,,,,1.88,1.62,0.96*00
$GPRMC,190803.000,A,4913.5235,N,12249.3992,W,1.02,167.37,180920,,,A*79
$GPVTG,167.37,T,,M,1.02,N,1.89,K,A*3A
$GPGGA,190804.000,4913.5236,N,12249.3987,W,1,6,1.62,30.9,M,-16.7,M,,*5A
$GPGSA,A,3,20,27,10,15,13,18,,,,,,,1.88,1.62,0.96*00
$GPRMC,190804.000,A,4913.5236,N,12249.3987,W,1.08,167.37,180920,,,A*73
$GPVTG,167.37,T,,M,1.08,N,2.01,K,A*33
$GPGGA,190805.000,4913.5237,N,12249.3983,W,1,6,1.62,31.0,M,-16.7,M,,*56
$GPGSA,A,3,20,27,10,15,13,18,,,,,,,1.88,1.62,0.96*00
$GPRMC,190805.000,A,4913.5237,N,12249.3983,W,1.26,167.37,180920,,,A*7B
$GPVTG,167.37,T,,M,1.26,N,2.33,K,A*3E
$GPGGA,190806.000,4913.5238,N,12249.3978,W,1,6,1.62,31.1,M,-16.7,M,,*5F
$GPGSA,A,3,20,27,10,15,13,18,,,,,,,1.88,1.62,0.96*00
$GPGSV,3,1,12,20,89,210,20,18,59,094,19,10,53,235,21,27,44,302,21*7D
$GPGSV,3,2,12,15,39,066,18,44,33,172,,16,23,261,,21,22,291,*72
$GPGSV,3,3,12,13,17,039,20,08,14,319,15,29,07,153,,26,07,230,*7D
$GPRMC,190806.000,A,4913.5238,N,12249.3978,W,1.36,167.37,180920,,,A*72
$GPVTG,167.37,T,,M,1.36,N,2.53,K,A*39
$GPGGA,190807.000,4913.5238,N,12249.3972,W,1,6,1.62,31.2,M,-16.7,M,,*57
$GPGSA,A,3,20,27,10,15,13,18,,,,,,,1.88,1.62,0.96*00
$GPRMC,190807.000,A,4913.5238,N,12249.3972,W,1.09,167.37,180920,,,A*75
$GPVTG,167.37,T,,M,1.09,N,2.01,K,A*32
$GPGGA,190808.000,4913.5238,N,12249.3968,W,1,6,1.62,31.4,M,-16.7,M,,*55
$GPGSA,A,3,20,27,10,15,13,18,,,,,,,1.88,1.62,0.96*00
$GPRMC,190808.000,A,4913.5238,N,12249.3968,W,0.97,167.37,180920,,,A*77
$GPVTG,167.37,T,,M,0.97,N,1.79,K,A*38
$GPGGA,190809.000,4913.5238,N,12249.3964,W,1,6,1.62,31.5,M,-16.7,M,,*59
$GPGSA,A,3,20,27,10,15,13,18,,,,,,,1.88,1.62,0.96*00
$GPRMC,190809.000,A,4913.5238,N,12249.3964,W,0.66,167.37,180920,,,A*74
$GPVTG,167.37,T,,M,0.66,N,1.22,K,A*38
$GPGGA,190810.000,4913.5237,N,12249.3961,W,1,6,1.62,31.6,M,-16.7,M,,*58
$GPGSA,A,3,20,27,10,15,13,18,,,,,,,1.88,1.62,0.96*00
$GPRMC,190810.000,A,4913.5237,N,12249.3961,W,0.61,167.37,180920,,,A*71
$GPVTG,167.37,T,,M,0.61,N,1.12,K,A*3C
$GPGGA,190811.000,4913.5237,N,12249.3959,W,1,7,1.34,31.7,M,-16.7,M,,*51
$GPGSA,A,3,20,27,10,15,08,13,18,,,,,,1.64,1.34,0.95*0A
$GPGSV,3,1,11,20,89,210,19,18,59,094,19,10,53,235,22,27,44,302,22*74
$GPGSV,3,2,11,15,39,065,19,16,23,261,,21,22,291,,13,17,039,20*7B
$GPGSV,3,3,11,08,14,319,14,29,07,153,24,26,07,230,*45
$GPRMC,190811.000,A,4913.5237,N,12249.3959,W,0.74,167.37,180920,,,A*7F
$GPVTG,167.37,T,,M,0.74,N,1.38,K,A*30
$GPGGA,190812.000,4913.5238,N,12249.3956,W,1,6,1.62,31.8,M,-16.7,M,,*5F
$GPGSA,A,3,20,27,10,15,13,18,,,,,,,1.88,1.62,0.96*00
$GPRMC,190812.000,A,4913.5238,N,12249.3956,W,0.79,167.37,180920,,,A*71
$GPVTG,167.37,T,,M,0.79,N,1.46,K,A*34
$GPGGA,190813.000,4913.5239,N,12249.3953,W,1,6,1.62,31.9,M,-16.7,M,,*5B
$GPGSA,A,3,20,27,10,15,13,18,,,,,,,1.88,1.62,0.96*00
$GPRMC,190813.000,A,4913.5239,N,12249.3953,W,0.81,167.37,180920,,,A*73
$GPVTG,167.37,T,,M,0.81,N,1.51,K,A*35
$GPGGA,190814.000,4913.5241,N,12249.3951,W,1,6,1.62,32.0,M,-16.7,M,,*5B
$GPGSA,A,3,20,27,10,15,13,18,,,,,,,1.88,1.62,0.96*00
$GPRMC,190814.000,A,4913.5241,N,12249.3951,W,1.02,167.37,180920,,,A*73
$GPVTG,167.37,T,,M,1.02,N,1.89,K,A*3A
$GPGGA,190815.000,4913.5244,N,12249.3950,W,1,6,1.62,32.2,M,-16.7,M,,*5C
$GPGSA,A,3,20,27,10,15,13,18,,,,,,,1.88,1.62,0.96*00
$GPRMC,190815.000,A,4913.5244,N,12249.3950,W,1.04,167.37,180920,,,A*70
$GPVTG,167.37,T,,M,1.04,N,1.93,K,A*37
$GPGGA,190816.000,4913.5246,N,12249.3947,W,1,6,1.62,32.3,M,-16.7,M,,*5A
$GPGSA,A,3,20,27,10,15,13,18,,,,,,,1.88,1.62,0.96*00
$GPGSV,3,1,12,20,89,203,18,18,59,094,17,10,53,235,22,27,44,302,20*78
$GPGSV,3,2,12,15,39,065,18,46,33,188,,16,23,261,,21,22,291,*76
$GPGSV,3,3,12,13,17,039,20,08,14,319,16,29,07,153,,26,07,230,*7E
$GPRMC,190816.000,A,4913.5246,N,12249.3947,W,1.12,167.37,180920,,,A*70
$GPVTG,167.37,T,,M,1.12,N,2.08,K,A*31
$GPGGA,190817.000,4913.5247,N,12249.3943,W,1,6,1.62,32.4,M,-16.7,M,,*59
$GPGSA,A,3,20,27,10,15,13,18,,,,,,,1.88,1.62,0.96*00
$GPRMC,190817.000,A,4913.5247,N,12249.3943,W,1.34,167.37,180920,,,A*70
$GPVTG,167.37,T,,M,1.34,N,2.49,K,A*30
$GPGGA,190818.000,4913.5246,N,12249.3937,W,1,6,1.62,32.5,M,-16.7,M,,*55
$GPGSA,A,3,20,27,10,15,13,18,,,,,,,1.88,1.62,0.96*00
$GPRMC,190818.000,A,4913.5246,N,12249.3937,W,1.51,167.37,180920,,,A*7E
$GPVTG,167.37,T,,M,1.51,N,2.79,K,A*30
$GPGGA,190819.000,4913.5243,N,12249.3934,W,1,6,1.62,32.6,M,-16.7,M,,*51
$GPGSA,A,3,20,27,10,15,13,18,,,,,,,1.88,1.62,0.96*00
$GPRMC,190819.000,A,4913.5243,N,12249.3934,W,1.37,167.37,180920,,,A*79
$GPVTG,167.37,T,,M,1.37,N,2.54,K,A*3F
$GPGGA,190820.000,4913.5240,N,12249.3931,W,1,6,1.62,32.7,M,-16.7,M,,*5C
$GPGSA,A,3,20,27,10,15,13,18,,,,,,,1.88,1.62,0.96*00
$GPRMC,190820.000,A,4913.5240,N,12249.3931,W,1.06,167.37,180920,,,A*77
$GPVTG,167.37,T,,M,1.06,N,1.96,K,A*30
$GPGGA,190821.000,4913.5238,N,12249.3927,W,1,6,1.62,32.8,M,-16.7,M,,*5A
$GPGSA,A,3,20,27,10,15,13,18,,,,,,,1.88,1.62,0.96*00
$GPGSV,3,1,12,20,89,203,18,18,59,094,16,10,53,235,22,27,44,302,20*79
$GPGSV,3,2,12,15,39,065,18,46,33,188,,16,23,261,,21,22,291,*76
$GPGSV,3,3,12,13,17,039,19,08,14,319,16,29,07,153,,26,07,230,*74
$GPRMC,190821.000,A,4913.5238,N,12249.3927,W,1.62,167.37,180920,,,A*7C
$GPVTG,167.37,T,,M,1.62,N,2.99,K,A*3E
$GPGGA,190822.000,4913.5236,N,12249.3921,W,1,6,1.62,32.9,M,-16.7,M,,*50
$GPGSA,A,3,20,27,10,15,13,18,,,,,,,1.88,1.62,0.96*00
$GPRMC,190822.000,A,4913.5236,N,12249.3921,W,2.12,115.61,180920,,,A*75
$GPVTG,115.61,T,,M,2.12,N,3.92,K,A*36
$GPGGA,190823.000,4913.5234,N,12249.3915,W,1,6,1.62,33.0,M,-16.7,M,,*5C
$GPGSA,A,3,20,27,10,15,13,18,,,,,,,1.88,1.62,0.96*00
$GPRMC,190823.000,A,4913.5234,N,12249.3915,W,1.94,105.49,180920,,,A*77
$GPVTG,105.49,T,,M,1.94,N,3.59,K,A*37
$GPGGA,190824.000,4913.5226,N,12249.3915,W,1,6,1.62,33.1,M,-16.7,M,,*59
$GPGSA,A,3,20,27,10,15,13,18,,,,,,,1.88,1.62,0.96*00
$GPRMC,190824.000,A,4913.5226,N,12249.3915,W,1.88,113.02,180920,,,A*76
$GPVTG,113.02,T,,M,1.88,N,3.48,K,A*32
$GPGGA,190825.000,4913.5222,N,12249.3908,W,1,6,1.62,33.1,M,-16.7,M,,*50
$GPGSA,A,3,20,27,10,15,13,18,,,,,,,1.88,1.62,0.96*00
$GPRMC,190825.000,A,4913.5222,N,12249.3908,W,2.12,110.99,180920,,,A*7E
$GPVTG,110.99,T,,M,2.12,N,3.92,K,A*34
$GPGGA,190826.000,4913.5219,N,12249.3899,W,1,6,1.62,33.2,M,-16.7,M,,*51
$GPGSA,A,3,20,27,10,15,13,18,,,,,,,1.88,1.62,0.96*00
$GPGSV,3,1,12,20,89,203,18,18,59,094,14,10,53,235,23,27,44,302,12*7B
$GPGSV,3,2,12,15,39,065,17,48,32,193,,16,23,261,,21,22,291,*7C
$GPGSV,3,3,12,13,17,039,22,08,14,319,,26,07,230,,29,06,153,*7A
$GPRMC,190826.000,A,4913.5219,N,12249.3899,W,2.62,109.90,180920,,,A*7A
$GPVTG,109.90,T,,M,2.62,N,4.86,K,A*30
$GPGGA,190827.000,4913.5207,N,12249.3891,W,1,6,1.62,33.3,M,-16.7,M,,*56
$GPGSA,A,3,20,27,10,15,13,18,,,,,,,1.88,1.62,0.96*00
$GPRMC,190827.000,A,4913.5207,N,12249.3891,W,3.16,118.71,180920,,,A*71
$GPVTG,118.71,T,,M,3.16,N,5.86,K,A*3C
$GPGGA,190828.000,4913.5199,N,12249.3872,W,1,6,1.62,33.3,M,-16.7,M,,*50
$GPGSA,A,3,20,27,10,15,13,18,,,,,,,1.88,1.62,0.96*00
$GPRMC,190828.000,A,4913.5199,N,12249.3872,W,4.11,121.11,180920,,,A*7B
$GPVTG,121.11,T,,M,4.11,N,7.62,K,A*38
$GPGGA,190829.000,4913.5188,N,12249.3850,W,1,6,1.62,33.4,M,-16.7,M,,*56
$GPGSA,A,3,20,27,10,15,13,18,,,,,,,1.88,1.62,0.96*00
$GPRMC,190829.000,A,4913.5188,N,12249.3850,W,4.96,122.63,180920,,,A*73
$GPVTG,122.63,T,,M,4.96,N,9.19,K,A*33
$GPGGA,190830.000,4913.5156,N,12249.3808,W,1,6,1.62,33.5,M,-16.7,M,,*51
$GPGSA,A,3,20,27,10,15,13,18,,,,,,,1.88,1.62,0.96*00
$GPRMC,190830.000,A,4913.5156,N,12249.3808,W,6.53,126.71,180920,,,A*79
$GPVTG,126.71,T,,M,6.53,N,12.09,K,A*04
$GPGGA,190831.000,4913.5123,N,12249.3760,W,1,6,1.62,33.7,M,-16.7,M,,*51
$GPGSA,A,3,20,27,10,15,13,18,,,,,,,1.88,1.62,0.96*00
$GPGSV,3,1,12,20,89,203,16,18,59,094,12,10,53,235,21,27,44,302,12*71
$GPGSV,3,2,12,15,39,065,17,51,31,159,,16,23,261,,21,22,291,*71
$GPGSV,3,3,12,13,17,039,22,08,14,319,,26,07,230,,29,06,153,*7A
$GPRMC,190831.000,A,4913.5123,N,12249.3760,W,7.95,127.93,180920,,,A*7D
$GPVTG,127.93,T,,M,7.95,N,14.74,K,A*0E
$GPGGA,190832.000,4913.5085,N,12249.3703,W,1,6,1.62,33.8,M,-16.7,M,,*55
$GPGSA,A,3,20,27,10,15,13,18,,,,,,,1.88,1.62,0.96*00
$GPRMC,190832.000,A,4913.5085,N,12249.3703,W,9.52,127.53,180920,,,A*7F
$GPVTG,127.53,T,,M,9.52,N,17.64,K,A*05
$GPGGA,190833.000,4913.5049,N,12249.3649,W,1,6,1.62,33.9,M,-16.7,M,,*5A
$GPGSA,A,3,20,27,10,15,13,18,,,,,,,1.88,1.62,0.96*00
$GPRMC,190833.000,A,4913.5049,N,12249.3649,W,10.69,128.02,180920,,,A*4A
$GPVTG,128.02,T,,M,10.69,N,19.81,K,A*3B
$GPGGA,190834.000,4913.5004,N,12249.3591,W,1,6,1.62,34.0,M,-16.7,M,,*5C
$GPGSA,A,3,20,27,10,15,13,18,,,,,,,1.88,1.62,0.96*00
$GPRMC,190834.000,A,4913.5004,N,12249.3591,W,11.84,130.80,180920,,,A*43
$GPVTG,130.80,T,,M,11.84,N,21.93,K,A*32
$GPGGA,190835.000,4913.4961,N,12249.3532,W,1,6,1.62,34.0,M,-16.7,M,,*5F
$GPGSA,A,3,20,27,10,15,13,18,,,,,,,1.88,1.62,0.96*00
$GPRMC,190835.000,A,4913.4961,N,12249.3532,W,12.70,131.73,180920,,,A*45
$GPVTG,131.73,T,,M,12.70,N,23.53,K,A*39
$GPGGA,190836.000,4913.4920,N,12249.3472,W,1,5,1.84,34.0,M,-16.7,M,,*57
$GPGSA,A,3,20,27,10,15,13,,,,,,,,2.08,1.84,0.96*0A
$GPGSV,3,1,12,20,89,203,18,18,59,094,,10,53,235,20,27,44,302,13*7C
$GPGSV,3,2,12,15,39,065,17,51,31,159,,16,23,261,,21,22,291,*71
$GPGSV,3,3,12,13,17,039,23,08,14,319,,26,07,230,,29,06,153,*7B
$GPRMC,190836.000,A,4913.4920,N,12249.3472,W,13.57,132.20,180920,,,A*47
$GPVTG,132.20,T,,M,13.57,N,25.15,K,A*3C
$GPGGA,190837.000,4913.4874,N,12249.3409,W,1,5,1.84,34.0,M,-16.7,M,,*5A
$GPGSA,A,3,20,27,10,15,13,,,,,,,,2.08,1.84,0.96*0A
$GPRMC,190837.000,A,4913.4874,N,12249.3409,W,14.33,133.38,180920,,,A*47
$GPVTG,133.38,T,,M,14.33,N,26.55,K,A*36
$GPGGA,190838.000,4913.4837,N,12249.3356,W,1,5,1.84,34.0,M,-16.7,M,,*5F
$GPGSA,A,3,20,27,10,15,13,,,,,,,,2.08,1.84,0.96*0A
$GPRMC,190838.000,A,4913.4837,N,12249.3356,W,14.54,132.76,180920,,,A*48
$GPVTG,132.76,T,,M,14.54,N,26.94,K,A*31
$GPGGA,190839.000,4913.4801,N,12249.3310,W,1,5,1.84,34.0,M,-16.7,M,,*59
$GPGSA,A,3,20,27,10,15,13,,,,,,,,2.08,1.84,0.96*0A
$GPRMC,190839.000,A,4913.4801,N,12249.3310,W,14.55,135.12,180920,,,A*4A
$GPVTG,135.12,T,,M,14.55,N,26.96,K,A*37
$GPGGA,190840.000,4913.4781,N,12249.3288,W,1,5,1.84,34.0,M,-16.7,M,,*50
$GPGSA,A,3,20,27,10,15,13,,,,,,,,2.08,1.84,0.96*0A
$GPRMC,190840.000,A,4913.4781,N,12249.3288,W,13.11,137.85,180920,,,A*48
$GPVTG,137.85,T,,M,13.11,N,24.29,K,A*3A
$GPGGA,190841.000,4913.4750,N,12249.3255,W,1,5,1.84,34.1,M,-16.7,M,,*5C
$GPGSA,A,3,20,27,10,15,13,,,,,,,,2.08,1.84,0.96*0A
$GPGSV,3,1,11,20,89,203,19,18,59,094,,10,53,236,23,27,44,302,18*75
$GPGSV,3,2,11,15,39,065,16,16,23,261,,21,22,291,,13,17,039,20*74
$GPGSV,3,3,11,08,14,319,,26,07,230,,29,06,153,*47
$GPRMC,190841.000,A,4913.4750,N,12249.3255,W,13.09,139.21,180920,,,A*4C
$GPVTG,139.21,T,,M,13.09,N,24.25,K,A*3F
$GPGGA,190842.000,4913.4721,N,12249.3221,W,1,5,1.84,34.2,M,-16.7,M,,*59
$GPGSA,A,3,20,27,10,15,13,,,,,,,,2.08,1.84,0.96*0A
$GPRMC,190842.000,A,4913.4721,N,12249.3221,W,13.06,138.97,180920,,,A*49
$GPVTG,138.97,T,,M,13.06,N,24.20,K,A*39
$GPGGA,190843.000,4913.4940,N,12249.3550,W,1,5,1.84,35.5,M,-16.7,M,,*56
$GPGSA,A,3,20,27,10,15,13,,,,,,,,2.08,1.84,0.96*0A
$GPRMC,190843.000,A,4913.4940,N,12249.3550,W,3.76,145.98,180920,,,A*73
$GPVTG,145.98,T,,M,3.76,N,6.97,K,A*36
$GPGGA,190844.000,4913.4970,N,12249.3598,W,1,5,1.84,35.9,M,-16.7,M,,*5A
$GPGSA,A,3,20,27,10,15,13,,,,,,,,2.08,1.84,0.96*0A
$GPRMC,190844.000,A,4913.4970,N,12249.3598,W,3.54,142.32,180920,,,A*74
$GPVTG,142.32,T,,M,3.54,N,6.55,K,A*3F
$GPGGA,190845.000,4913.4984,N,12249.3611,W,1,5,1.85,36.3,M,-16.7,M,,*5A
$GPGSA,A,3,20,27,10,15,13,,,,,,,,2.08,1.85,0.96*0B
$GPRMC,190845.000,A,4913.4984,N,12249.3611,W,3.09,129.85,180920,,,A*75
$GPVTG,129.85,T,,M,3.09,N,5.73,K,A*31
$GPGGA,190846.000,4913.4998,N,12249.3625,W,1,5,1.85,36.3,M,-16.7,M,,*53
$GPGSA,A,3,20,27,10,15,13,,,,,,,,2.08,1.85,0.96*0B
$GPGSV,3,1,11,20,89,203,19,18,59,094,,10,53,236,23,27,44,302,23*7D
$GPGSV,3,2,11,15,39,065,16,16,23,261,,21,22,291,,13,17,038,20*75
$GPGSV,3,3,11,08,14,319,,26,07,230,,29,06,153,*47
$GPRMC,190846.000,A,4913.4998,N,12249.3625,W,3.12,121.17,180920,,,A*75
$GPVTG,121.17,T,,M,3.12,N,5.79,K,A*32
$GPGGA,190847.000,4913.5031,N,12249.3669,W,1,5,1.85,36.5,M,-16.7,M,,*57
$GPGSA,A,3,20,27,10,15,13,,,,,,,,2.08,1.85,0.96*0B
$GPRMC,190847.000,A,4913.5031,N,12249.3669,W,2.95,122.14,180920,,,A*79
$GPVTG,122.14,T,,M,2.95,N,5.46,K,A*30
$GPGGA,190848.000,4913.5032,N,12249.3677,W,1,5,1.85,36.6,M,-16.7,M,,*57
$GPGSA,A,3,20,27,10,15,13,,,,,,,,2.08,1.85,0.96*0B
$GPRMC,190848.000,A,4913.5032,N,12249.3677,W,2.93,141.07,180920,,,A*7B
$GPVTG,141.07,T,,M,2.93,N,5.42,K,A*35
$GPGGA,190849.000,4913.5030,N,12249.3689,W,1,5,1.85,36.8,M,-16.7,M,,*5B
$GPGSA,A,3,20,27,10,15,13,,,,,,,,2.08,1.85,0.96*0B
$GPRMC,190849.000,A,4913.5030,N,12249.3689,W,3.24,148.41,180920,,,A*7F
$GPVTG,148.41,T,,M,3.24,N,6.00,K,A*36
$GPGGA,190850.000,4913.5033,N,12249.3704,W,1,6,1.61,36.7,M,-16.7,M,,*52
$GPGSA,A,3,20,27,10,15,13,21,,,,,,,1.87,1.61,0.94*04
$GPRMC,190850.000,A,4913.5033,N,12249.3704,W,2.97,151.67,180920,,,A*75
$GPVTG,151.67,T,,M,2.97,N,5.51,K,A*34
$GPGGA,190851.000,4913.5041,N,12249.3725,W,1,6,1.62,36.7,M,-16.7,M,,*56
$GPGSA,A,3,20,27,10,15,13,21,,,,,,,1.87,1.62,0.94*07
$GPGSV,3,1,12,20,89,191,20,18,59,094,,10,53,236,20,27,44,302,24*78
$GPGSV,3,2,12,15,39,065,15,16,23,261,,21,22,291,23,13,17,038,22*76
$GPGSV,3,3,12,08,14,319,,26,07,230,,29,06,153,,34,,,*43
$GPRMC,190851.000,A,4913.5041,N,12249.3725,W,2.09,166.89,180920,,,A*71
$GPVTG,166.89,T,,M,2.09,N,3.88,K,A*35
$GPGGA,190852.000,4913.5041,N,12249.3732,W,1,6,1.62,36.8,M,-16.7,M,,*5C
$GPGSA,A,3,20,27,10,15,13,21,,,,,,,1.87,1.62,0.94*07
$GPRMC,190852.000,A,4913.5041,N,12249.3732,W,2.14,159.43,180920,,,A*72
$GPVTG,159.43,T,,M,2.14,N,3.96,K,A*3C
